[{"id":"58a67689-1e6b-4b8a-aeb9-55bc8edf3df0","country":"US","name":"Bay Minette","lat":"30.88296","lng":"-87.77305"},{"id":"bc421931-8668-4f9e-9e35-27abe59a5b18","country":"US","name":"Edna","lat":"28.97859","lng":"-96.64609"},{"id":"0ad59311-42bd-4e2d-afba-c49003edf478","country":"US","name":"Bayou La Batre","lat":"30.40352","lng":"-88.24852"},{"id":"3f912d17-9278-4128-b3b0-0e515d0304dc","country":"US","name":"Henderson","lat":"32.15322","lng":"-94.79938"},{"id":"70b5e209-77e0-44a4-be79-900343892bf7","country":"US","name":"Natalia","lat":"29.18968","lng":"-98.86253"},{"id":"71e332d9-8f38-424a-90d1-f8f7645f4547","country":"US","name":"Bear Creek","lat":"34.27482","lng":"-87.70058"},{"id":"a3ad2643-6cd1-4044-87ed-c295b86a0793","country":"US","name":"Fort Hunt","lat":"38.73289","lng":"-77.05803"},{"id":"714f0502-24a6-4b3a-a1c4-311d46773f8d","country":"US","name":"Yorktown","lat":"37.23876","lng":"-76.50967"},{"id":"418199b2-86e2-4c50-8d5c-94ba7e46df2f","country":"US","name":"Brighton","lat":"33.43428","lng":"-86.94721"},{"id":"5248023d-81bb-4ab1-8694-b335bd8e30bf","country":"US","name":"Ocean View","lat":"38.54511","lng":"-75.08907"},{"id":"e0dfa29b-df43-4adc-b4d3-740952cda582","country":"US","name":"Berry","lat":"33.65983","lng":"-87.60001"},{"id":"5309334b-ba26-4d46-8367-ff977cef291d","country":"US","name":"Trinity","lat":"28.18085","lng":"-82.68177"},{"id":"c775c734-429f-4184-acaa-6880c14c4645","country":"US","name":"Villas","lat":"26.55035","lng":"-81.8687"},{"id":"6df94dd7-3868-4556-935e-8aa98ebf28b7","country":"US","name":"Bessemer","lat":"33.40178","lng":"-86.95444"},{"id":"32913c66-d2ae-401a-9221-20c18537ff0f","country":"US","name":"Aurora","lat":"39.057","lng":"-84.90134"},{"id":"92600554-149c-4009-a5de-8dd10c804c2d","country":"US","name":"New Pekin","lat":"38.50506","lng":"-86.01692"},{"id":"f19396f1-83bf-4400-811c-8bb16503746e","country":"US","name":"Stockton","lat":"39.43807","lng":"-99.2651"},{"id":"314d372f-8cf4-4308-bc55-adb6ead87af4","country":"US","name":"Paducah","lat":"37.08339","lng":"-88.60005"},{"id":"ad1e4231-7cbe-439f-9153-699435958bcf","country":"US","name":"Monticello","lat":"32.59653","lng":"-91.394"},{"id":"1c6f5225-2988-468a-bcba-daa7dc872aec","country":"US","name":"Red Chute","lat":"32.55598","lng":"-93.61323"},{"id":"549e80bf-c4cb-47b4-9017-828d55a30e4d","country":"US","name":"Jessup","lat":"39.14927","lng":"-76.77525"},{"id":"10237d2d-c677-4032-8c93-c3233e5acb69","country":"US","name":"Birmingham","lat":"33.52066","lng":"-86.80249"},{"id":"f3d49e78-60fe-46db-8886-f9f07dcaaff3","country":"US","name":"Delhi Hills","lat":"39.09284","lng":"-84.61272"},{"id":"b8577c1d-bf36-41c9-b37d-61a34e9fc169","country":"US","name":"Turpin Hills","lat":"39.11006","lng":"-84.37994"},{"id":"11bf78c9-a0b1-4094-a3c7-4d68d58ea89c","country":"US","name":"Lugoff","lat":"34.22737","lng":"-80.68925"},{"id":"72416bf2-5bd6-4373-9081-f8769f7398cd","country":"US","name":"Blountsville","lat":"34.08149","lng":"-86.5911"},{"id":"c0be3c96-9d3b-4feb-9886-78204bba0a8e","country":"US","name":"Blue Ridge","lat":"32.49264","lng":"-86.19052"},{"id":"2c2acce0-63fa-4e57-a2ee-5aa75c188927","country":"US","name":"Buda","lat":"30.08521","lng":"-97.84028"},{"id":"f2f7a530-1975-40d6-a84f-4623f359741c","country":"US","name":"Boaz","lat":"34.20065","lng":"-86.16637"},{"id":"f5c8b4b5-32c0-44b3-ad4e-62521237f89d","country":"US","name":"Brent","lat":"32.93735","lng":"-87.16472"},{"id":"31f50ef7-7ec0-47b6-bb45-627de3a9bf64","country":"US","name":"Brewton","lat":"31.10518","lng":"-87.07219"},{"id":"3f052eea-dc44-4704-9941-fd29bc96362d","country":"US","name":"Bridgeport","lat":"34.94758","lng":"-85.71442"},{"id":"e0856594-2c5a-4abb-9a85-381502c1d09e","country":"US","name":"Brook Highland","lat":"33.43566","lng":"-86.67388"},{"id":"b96ddd0a-3dfb-44ec-9726-c8024ec8a98b","country":"US","name":"Brookside","lat":"33.63788","lng":"-86.91666"},{"id":"0e3c9095-80fe-4896-8256-2cc9981982e0","country":"US","name":"Brookwood","lat":"33.25567","lng":"-87.32083"},{"id":"0be1b008-c55b-4f5c-81c9-31909ed331ee","country":"US","name":"Brundidge","lat":"31.72016","lng":"-85.81606"},{"id":"bcc345d7-bc4b-4114-9c12-315a29b4a51f","country":"US","name":"Butler","lat":"32.08959","lng":"-88.22197"},{"id":"b7c708db-ccbf-4203-856c-dbeb9d30a171","country":"US","name":"Bynum","lat":"33.61316","lng":"-85.96108"},{"id":"12624ad1-ff01-4888-b8d4-21dc498b05a8","country":"US","name":"Cahaba Heights","lat":"33.464","lng":"-86.73193"},{"id":"49666e05-7891-48b4-87ff-83395fa07250","country":"US","name":"Calera","lat":"33.1029","lng":"-86.7536"},{"id":"22f5b264-3a25-4278-9a8b-9feea73822b8","country":"US","name":"Camden","lat":"31.99098","lng":"-87.29055"},{"id":"7eb1155d-07f5-41d7-9bb8-19a6c7241f34","country":"US","name":"Carbon Hill","lat":"33.89177","lng":"-87.52612"},{"id":"1ffb3e2f-b8de-4660-b91d-a2f05f557868","country":"US","name":"Carrollton","lat":"33.26169","lng":"-88.09503"},{"id":"d7d03fb7-b712-4dc9-8c3f-427c5699afcc","country":"US","name":"Cedar Bluff","lat":"34.22009","lng":"-85.60774"},{"id":"15a16a73-9598-421b-908f-15d3e28c7822","country":"US","name":"Center Point","lat":"33.64566","lng":"-86.6836"},{"id":"61ab6a6c-49b4-4cb5-9afd-0c89a344b9e7","country":"US","name":"Centre","lat":"34.15204","lng":"-85.67885"},{"id":"17d9353b-650a-4849-8fc2-226eb821211e","country":"US","name":"Centreville","lat":"32.9462","lng":"-87.11669"},{"id":"7631c224-1911-4b6f-9eec-69bf40bc37f8","country":"US","name":"Chalkville","lat":"33.65316","lng":"-86.64777"},{"id":"c6156598-e392-4328-9876-54eb06607919","country":"US","name":"Chatom","lat":"31.46517","lng":"-88.25446"},{"id":"56132d3c-90c9-4f0b-9395-fbd1d007b798","country":"US","name":"Chelsea","lat":"33.34011","lng":"-86.63026"},{"id":"39bdb362-a1df-4d48-92be-9ce3cc6341d7","country":"US","name":"Cherokee","lat":"34.75703","lng":"-87.97281"},{"id":"2237cae3-c855-4c86-b1d5-dca9a84da23b","country":"US","name":"Chickasaw","lat":"30.7638","lng":"-88.07472"},{"id":"1975b570-0bac-483c-8111-3d3db8f5a7b3","country":"US","name":"Childersburg","lat":"33.27817","lng":"-86.35498"},{"id":"19b74ddc-08c4-47ba-aa72-353f9c41dddc","country":"US","name":"Choccolocco","lat":"33.65927","lng":"-85.70357"},{"id":"c5d85206-9cf2-4b05-a787-014ded2a7e49","country":"US","name":"Citronelle","lat":"31.09073","lng":"-88.22806"},{"id":"1f8d1d46-7bb2-4962-bf3b-d6b2da632688","country":"US","name":"Clanton","lat":"32.83874","lng":"-86.62943"},{"id":"1db17adc-e155-4c80-bded-f24d82d3df02","country":"US","name":"Clay","lat":"33.7026","lng":"-86.59971"},{"id":"46bfda9c-bb18-4474-a329-976c0a9ad5b2","country":"US","name":"Clayton","lat":"31.87822","lng":"-85.44966"},{"id":"0a7a9b9b-7e92-4bab-b438-e68344b1e70c","country":"US","name":"Cleveland","lat":"33.99093","lng":"-86.57749"},{"id":"8f15c3d3-b38b-4222-a078-f87007e91279","country":"US","name":"Clio","lat":"31.70878","lng":"-85.6105"},{"id":"a2bf97a5-9af5-42e5-8070-f32d3404be5b","country":"US","name":"Coaling","lat":"33.15901","lng":"-87.34083"},{"id":"7061f284-9bfc-4048-a3e8-8193acbb31a4","country":"US","name":"Collinsville","lat":"34.26398","lng":"-85.86053"},{"id":"7e9713db-f700-4b4e-8d24-fb2f776dfb3b","country":"US","name":"Columbiana","lat":"33.17817","lng":"-86.60721"},{"id":"e2bcd516-fda1-4f8c-9a34-460dd049ff1a","country":"US","name":"Concord","lat":"33.46761","lng":"-87.03111"},{"id":"a97a50ea-8d32-4082-ab92-183ded0e2b9b","country":"US","name":"Coosada","lat":"32.49791","lng":"-86.33136"},{"id":"d03e63a1-f2d6-4f64-9a88-6a5434c82b3d","country":"US","name":"Cordova","lat":"33.75983","lng":"-87.18333"},{"id":"c43e38d4-37ef-478b-bd1c-af80d7e76f1f","country":"US","name":"Cottonwood","lat":"31.04879","lng":"-85.30493"},{"id":"569f0d19-375b-442e-9ec6-6f78e2cd5f42","country":"US","name":"Cowarts","lat":"31.20018","lng":"-85.30465"},{"id":"3a9e51a4-a840-4656-9f63-5fd10e680d3f","country":"US","name":"Creola","lat":"30.89185","lng":"-88.03972"},{"id":"ad8d9f16-157d-49b3-824c-daab46c5382c","country":"US","name":"Crossville","lat":"34.28759","lng":"-85.99414"},{"id":"f115c155-ea86-4698-b1e5-29ab53983f57","country":"US","name":"Cullman","lat":"34.17482","lng":"-86.84361"},{"id":"b8ee4e27-7d9d-4ac9-9cd1-f4a883f44b7f","country":"US","name":"Dadeville","lat":"32.83124","lng":"-85.76357"},{"id":"99e0fa20-b4bf-4c88-aeff-067efe1e48cb","country":"US","name":"Daleville","lat":"31.31017","lng":"-85.71299"},{"id":"1c261131-602d-49ae-8659-33c35ef4ff23","country":"US","name":"Danville","lat":"34.41454","lng":"-87.08751"},{"id":"1d7600df-24b1-41e8-ae1d-f47fdac12027","country":"US","name":"Daphne","lat":"30.60353","lng":"-87.9036"},{"id":"e1449aa1-333b-4461-9ade-78de1798fa1b","country":"US","name":"Dauphin Island","lat":"30.25548","lng":"-88.10972"},{"id":"53ce555f-df35-4f20-b1c9-254b58b7d7e7","country":"US","name":"Deatsville","lat":"32.60819","lng":"-86.39581"},{"id":"fdcc6cb8-105b-40a8-9732-dce3022597c6","country":"US","name":"Decatur","lat":"34.60593","lng":"-86.98334"},{"id":"fbb6d6cb-56d5-4a4f-be3e-d8f8846d17a3","country":"US","name":"Demopolis","lat":"32.51764","lng":"-87.8364"},{"id":"11d864c6-dcf3-477d-a1d0-66353141ad44","country":"US","name":"Dora","lat":"33.72872","lng":"-87.09028"},{"id":"2b157ea8-0148-4558-8a73-58b2b81aac56","country":"US","name":"Dothan","lat":"31.22323","lng":"-85.39049"},{"id":"4d838815-65c6-4a32-95b8-3fe5f19208dc","country":"US","name":"Double Springs","lat":"34.14637","lng":"-87.40247"},{"id":"a060459e-2967-41c8-b06d-2658271eab31","country":"US","name":"East Brewton","lat":"31.09323","lng":"-87.06275"},{"id":"db0c160a-3862-4f11-bd80-a22402766f9a","country":"US","name":"East Florence","lat":"34.80953","lng":"-87.64947"},{"id":"9aae1074-e9e5-40c1-ac8c-8ba7b7ca61bb","country":"US","name":"Eclectic","lat":"32.63541","lng":"-86.03441"},{"id":"72135e05-d2d9-4066-8f16-f282012ccbf8","country":"US","name":"Elberta","lat":"30.41436","lng":"-87.59776"},{"id":"3e05f5df-c912-46b8-a5c3-0deae1d119d5","country":"US","name":"Enterprise","lat":"31.31517","lng":"-85.85522"},{"id":"813ccbb2-87b6-48a9-9385-e2f344ba3043","country":"US","name":"Eufaula","lat":"31.89127","lng":"-85.14549"},{"id":"746ccf64-e06d-4f54-9471-8b9ffa451464","country":"US","name":"Eutaw","lat":"32.84059","lng":"-87.88762"},{"id":"062e859e-718c-472c-b8a0-24e0a330f3fa","country":"US","name":"Evergreen","lat":"31.4335","lng":"-86.95692"},{"id":"87175fb2-675d-47c6-b2db-05cac0810564","country":"US","name":"Fairfield","lat":"33.48594","lng":"-86.91194"},{"id":"42cb000b-0077-4424-a5f8-bf287cf86d92","country":"US","name":"Fairhope","lat":"30.52297","lng":"-87.90333"},{"id":"d93e0602-44fa-485e-8864-8f32f89888ab","country":"US","name":"Falkville","lat":"34.36843","lng":"-86.90862"},{"id":"a7d4a9b0-c5fd-4f71-8f78-0e70d5b27cda","country":"US","name":"Fayette","lat":"33.68455","lng":"-87.83085"},{"id":"47aded85-91dc-4a20-a9f4-fa69b317b94f","country":"US","name":"Fayetteville","lat":"33.14567","lng":"-86.40581"},{"id":"0f74444a-20bb-4dfe-be3f-84f3cdb80297","country":"US","name":"Flint City","lat":"34.52315","lng":"-86.97029"},{"id":"e341a80a-cb08-45f0-9d8a-9c044c21b1be","country":"US","name":"Florala","lat":"31.00518","lng":"-86.328"},{"id":"535bd2a0-520c-4ad6-aed6-8554f17767e4","country":"US","name":"Florence","lat":"34.79981","lng":"-87.67725"},{"id":"43150a7e-abb9-469c-b121-3ef76892dfde","country":"US","name":"Flomaton","lat":"31.00018","lng":"-87.26081"},{"id":"5421b252-743f-4bd2-bc5e-72ff6b870abc","country":"US","name":"Foley","lat":"30.40659","lng":"-87.6836"},{"id":"db79d61a-5a2c-4703-92f5-4f683eeb8e72","country":"US","name":"Forestdale","lat":"33.57011","lng":"-86.89638"},{"id":"f5859023-5d55-452a-a67b-ef23ff43212f","country":"US","name":"Fort Deposit","lat":"31.98459","lng":"-86.57859"},{"id":"53b762e5-3f51-4a45-8140-1f7fe7cbcb4d","country":"US","name":"Fort Payne","lat":"34.44425","lng":"-85.71969"},{"id":"5ebba841-f4b9-4dea-b1a4-47604a8d010d","country":"US","name":"Frisco City","lat":"31.4335","lng":"-87.40138"},{"id":"b3fb7e11-b544-492a-bfb5-8be659d1efa6","country":"US","name":"Fultondale","lat":"33.60483","lng":"-86.79388"},{"id":"aed585eb-2d13-4d6d-8f12-02bf29711c99","country":"US","name":"Fyffe","lat":"34.44676","lng":"-85.90414"},{"id":"6ebbb649-56cd-4930-95d3-d219ca01046f","country":"US","name":"Gadsden","lat":"34.01434","lng":"-86.00639"},{"id":"ebdeba7f-4daf-4a47-a8a2-6d27a3d5a1a0","country":"US","name":"Gardendale","lat":"33.6601","lng":"-86.81277"},{"id":"bb19917f-60a3-4115-b987-e3269b0f38fc","country":"US","name":"Geneva","lat":"31.03296","lng":"-85.86382"},{"id":"a9b10dae-3dd5-48bb-b12a-5b789ada27dc","country":"US","name":"Georgiana","lat":"31.6371","lng":"-86.74192"},{"id":"36ecaf06-76da-4413-8a51-08fb578836ea","country":"US","name":"Glencoe","lat":"33.95704","lng":"-85.93247"},{"id":"0828becb-4539-4948-9f90-dc6dd1d02bfb","country":"US","name":"Good Hope","lat":"34.11593","lng":"-86.86361"},{"id":"1753149c-55c2-469b-91ad-8c686c35f6e5","country":"US","name":"Goodwater","lat":"33.06567","lng":"-86.0533"},{"id":"4a2ad823-fa0b-40fe-a089-762a18907e3c","country":"US","name":"Gordo","lat":"33.32012","lng":"-87.9028"},{"id":"7e06d5b1-3529-4c0c-b569-ecee86f86fd3","country":"US","name":"Grand Bay","lat":"30.47631","lng":"-88.34223"},{"id":"03c237c2-9868-4123-8a1c-80aa9bf19ac2","country":"US","name":"Grayson Valley","lat":"33.64816","lng":"-86.63943"},{"id":"841fb746-fb3a-4a47-8dee-be892f467587","country":"US","name":"Graysville","lat":"33.62066","lng":"-86.97138"},{"id":"b786a021-633a-4bd1-a64d-d12d78991e47","country":"US","name":"Greensboro","lat":"32.70415","lng":"-87.5955"},{"id":"c218087b-cf3e-4ceb-b2d0-879cb2b58f12","country":"US","name":"Greenville","lat":"31.8296","lng":"-86.61775"},{"id":"11828901-7f18-4834-ba84-681e46140a46","country":"US","name":"Grove Hill","lat":"31.70877","lng":"-87.77722"},{"id":"d95b2bfe-2468-4b57-b88f-972e250d1b35","country":"US","name":"Guin","lat":"33.96566","lng":"-87.91475"},{"id":"fc0ce3f1-d61c-42e2-9313-e983f20979ee","country":"US","name":"Gulf Shores","lat":"30.24604","lng":"-87.70082"},{"id":"ce5c430d-e04e-4596-ba85-0459a438967c","country":"US","name":"Guntersville","lat":"34.35823","lng":"-86.29446"},{"id":"c6e0a7bf-3ac1-4c8b-ac97-bab5d2ced45f","country":"US","name":"Hackleburg","lat":"34.27732","lng":"-87.82864"},{"id":"b25501c0-8b11-4707-ae57-fa48841beea6","country":"US","name":"Haleyville","lat":"34.22649","lng":"-87.62141"},{"id":"dbf07e98-15c8-4b65-baf8-d01555a4163c","country":"US","name":"Hamilton","lat":"34.14232","lng":"-87.98864"},{"id":"16e5c450-1d13-4362-88af-092d4b42c447","country":"US","name":"Hanceville","lat":"34.06065","lng":"-86.7675"},{"id":"ecc2894e-ba38-415d-b934-3025f2709119","country":"US","name":"Harpersville","lat":"33.344","lng":"-86.43804"},{"id":"9c923041-2792-4c22-a71b-57aa18ccd822","country":"US","name":"Hartford","lat":"31.1024","lng":"-85.69688"},{"id":"49312696-577b-46d1-a3b7-92f7b74d306f","country":"US","name":"Hartselle","lat":"34.44343","lng":"-86.93528"},{"id":"b91bf812-e441-4c4b-a2e4-fa04e7f73251","country":"US","name":"Harvest","lat":"34.85564","lng":"-86.75083"},{"id":"557baf6e-cd03-4ee9-a65f-463e3936a29d","country":"US","name":"Hayden","lat":"33.8926","lng":"-86.75777"},{"id":"ade6b575-8524-4b3e-9b93-2d0fc99ec666","country":"US","name":"Hayneville","lat":"32.18403","lng":"-86.58025"},{"id":"e31355a6-aa0d-44be-ad48-a3521acbe407","country":"US","name":"Hazel Green","lat":"34.93231","lng":"-86.57194"},{"id":"ef4019ea-2b8a-470c-b3d3-541dd6ff3c9c","country":"US","name":"Headland","lat":"31.35128","lng":"-85.34216"},{"id":"c9771fd9-3e4a-4c69-834f-77e47def2810","country":"US","name":"Heflin","lat":"33.64899","lng":"-85.58746"},{"id":"57fc0f84-975d-4620-a23d-340229354fb9","country":"US","name":"Helena","lat":"33.29622","lng":"-86.8436"},{"id":"fa73af1c-1dc0-4e2f-a033-fb3211c6a7dc","country":"US","name":"Henagar","lat":"34.63508","lng":"-85.76719"},{"id":"41c3082b-cfc5-488e-9540-e1cb68466aac","country":"US","name":"Hokes Bluff","lat":"33.99815","lng":"-85.86636"},{"id":"5007952a-0245-4be3-87f8-6756960bfd9f","country":"US","name":"Holt","lat":"33.23401","lng":"-87.48445"},{"id":"9df354ac-618d-4134-a720-6ced52f331c7","country":"US","name":"Holtville","lat":"32.63624","lng":"-86.32664"},{"id":"b2e3a497-f9a6-465d-ba69-4eacabd01374","country":"US","name":"Homewood","lat":"33.47177","lng":"-86.80082"},{"id":"22c725e6-c27b-4cdd-ad49-f516c88614d6","country":"US","name":"Hoover","lat":"33.40539","lng":"-86.81138"},{"id":"6516eb97-e426-4e7c-b772-c4fb83e8bb69","country":"US","name":"Hueytown","lat":"33.45122","lng":"-86.99666"},{"id":"deda7148-6b3f-4f88-bffa-4f4996fe05aa","country":"US","name":"Huguley","lat":"32.83457","lng":"-85.22966"},{"id":"e8b4121d-89a0-4eda-ad5e-1e962560195b","country":"US","name":"Huntsville","lat":"34.7304","lng":"-86.58594"},{"id":"6af20c3f-a294-46a2-bf9e-f057f82f18bf","country":"US","name":"Indian Springs Village","lat":"33.35539","lng":"-86.75443"},{"id":"b39bf0e3-a8ad-4d7e-a61d-b29d365f15d3","country":"US","name":"Inverness","lat":"32.01488","lng":"-85.74606"},{"id":"4b76f9c3-b18b-4b8a-b476-340a31f3aa2e","country":"US","name":"Irondale","lat":"33.53816","lng":"-86.70721"},{"id":"6d04691f-05c0-485f-b338-2cc94be49cbd","country":"US","name":"Jackson","lat":"31.50905","lng":"-87.89444"},{"id":"7a28c555-4368-42b1-b508-2c8573cdb11d","country":"US","name":"Jacksonville","lat":"33.81382","lng":"-85.7613"},{"id":"33eae512-d57d-498a-b929-63155ec31152","country":"US","name":"Jasper","lat":"33.83122","lng":"-87.27751"},{"id":"30adca96-f2de-4c6e-bdce-a0c3a13e03e1","country":"US","name":"Jemison","lat":"32.95985","lng":"-86.74665"},{"id":"ab893644-3fba-420f-83e7-1b08eb236429","country":"US","name":"Kimberly","lat":"33.77344","lng":"-86.81388"},{"id":"1f2bb981-cef8-4de9-a81a-cc0238c9e28d","country":"US","name":"Kinsey","lat":"31.29906","lng":"-85.34438"},{"id":"8894eb74-c642-4b3b-b428-c7ed8e935aa4","country":"US","name":"Ladonia","lat":"32.4682","lng":"-85.0791"},{"id":"0d692a4b-9648-4b1e-a6bb-b82e1009777e","country":"US","name":"Lafayette","lat":"32.89985","lng":"-85.40106"},{"id":"50f65d29-f14d-45a9-85c9-d2e084096b9c","country":"US","name":"Lake Purdy","lat":"33.43011","lng":"-86.68054"},{"id":"cfd8ff61-af21-408d-8594-fd58bde56804","country":"US","name":"Lake View","lat":"33.28067","lng":"-87.1375"},{"id":"4b462cd1-3787-49b3-906a-a6603af2ef89","country":"US","name":"Lanett","lat":"32.86874","lng":"-85.1905"},{"id":"3ea1fbf1-b090-4159-8e0f-c4a52fad8f11","country":"US","name":"Leeds","lat":"33.54816","lng":"-86.54443"},{"id":"3c46ada5-f082-444d-9b18-c1777a72794f","country":"US","name":"Leesburg","lat":"34.17982","lng":"-85.76136"},{"id":"0721e844-93d2-4c48-8cf7-4cef40b0deee","country":"US","name":"Level Plains","lat":"31.29962","lng":"-85.77799"},{"id":"48c987e5-f9f3-43db-a3bc-4d7aa5522963","country":"US","name":"Linden","lat":"32.30625","lng":"-87.79807"},{"id":"724c1ecb-5c77-4e7f-a7fc-c0e9b0e096ef","country":"US","name":"Lincoln","lat":"33.61316","lng":"-86.11831"},{"id":"0f49d609-2a51-477a-bc52-bc1db733ff11","country":"US","name":"Lineville","lat":"33.31067","lng":"-85.75441"},{"id":"a67a092d-7bef-44c3-a093-ff2ee1078acb","country":"US","name":"Lipscomb","lat":"33.42566","lng":"-86.92666"},{"id":"bd2c1ecf-c1c5-4d27-afee-416536b7b582","country":"US","name":"Livingston","lat":"32.5843","lng":"-88.18725"},{"id":"0af385be-8bdd-4694-98c1-7f0d2d254709","country":"US","name":"Locust Fork","lat":"33.9076","lng":"-86.61527"},{"id":"f683a7d9-77ad-4ddc-8a82-7eced5fc097a","country":"US","name":"Loxley","lat":"30.61825","lng":"-87.75305"},{"id":"51e0a4d2-c284-4163-a874-deed8bb65a5e","country":"US","name":"Luverne","lat":"31.71655","lng":"-86.26385"},{"id":"0fb0c314-2b3d-4dd1-87cb-f33ecde08cfe","country":"US","name":"Madison","lat":"34.69926","lng":"-86.74833"},{"id":"c52a3d91-696c-4411-97ff-0bb604122648","country":"US","name":"Malvern","lat":"31.13934","lng":"-85.5191"},{"id":"24c57baf-1320-4e50-bc44-ce04dde83561","country":"US","name":"Marbury","lat":"32.70124","lng":"-86.47109"},{"id":"bad6bf13-c07b-4dcb-a006-5f7a82dbc64a","country":"US","name":"Margaret","lat":"33.68621","lng":"-86.47498"},{"id":"185f2909-7efd-4616-bbb8-56bdfd63ce4d","country":"US","name":"Marion","lat":"32.63235","lng":"-87.31917"},{"id":"9bff388f-3dbd-45f2-afc9-5d5bdf332487","country":"US","name":"Meadowbrook","lat":"33.40205","lng":"-86.69665"},{"id":"8c358adb-26be-44d4-8ade-4a6e8db12cad","country":"US","name":"Meridianville","lat":"34.85148","lng":"-86.57222"},{"id":"5fac8bb5-5654-4bca-b719-93980ec98831","country":"US","name":"Midfield","lat":"33.4615","lng":"-86.90888"},{"id":"fc977d0f-2f23-4b0b-92e3-a54c04d813c4","country":"US","name":"Midland City","lat":"31.31906","lng":"-85.49382"},{"id":"ec6de34a-da76-4152-8637-77b834e3d031","country":"US","name":"Mignon","lat":"33.18345","lng":"-86.26109"},{"id":"1d124c8e-769d-4f33-9c1b-f0bd63363502","country":"US","name":"Millbrook","lat":"32.47986","lng":"-86.36192"},{"id":"8a41ece7-a62f-4d80-9025-b3dd703a5f26","country":"US","name":"Minor","lat":"33.53733","lng":"-86.94055"},{"id":"9f051658-2998-48c0-a7d2-1c8ba59eef81","country":"US","name":"Mobile","lat":"30.69436","lng":"-88.04305"},{"id":"a8bbf995-ac7b-479c-b563-9e4769910791","country":"US","name":"Monroeville","lat":"31.52794","lng":"-87.32471"},{"id":"a4b52f4f-2ff4-45b2-80f3-519b358c5c67","country":"US","name":"Montevallo","lat":"33.10067","lng":"-86.86416"},{"id":"ed5b7a31-eb2f-4f8a-a4eb-a135601c38d1","country":"US","name":"Montgomery","lat":"32.36681","lng":"-86.29997"},{"id":"42b4a8d9-248f-44b1-90a3-8572bbecb014","country":"US","name":"Moody","lat":"33.59094","lng":"-86.49082"},{"id":"0d23cdb0-cf00-412c-a74f-607bea79abcb","country":"US","name":"Moores Mill","lat":"34.84398","lng":"-86.51832"},{"id":"a1c8493b-95b3-4b1b-b40d-a3440a807c35","country":"US","name":"Morris","lat":"33.74816","lng":"-86.8086"},{"id":"326ec26f-7e2a-4a41-8f6d-2ffa5f49875a","country":"US","name":"Moulton","lat":"34.48121","lng":"-87.29335"},{"id":"631d22fb-ea1c-4469-aea2-a536a4a85377","country":"US","name":"Moundville","lat":"32.99762","lng":"-87.63001"},{"id":"10db2ac5-6955-485f-9015-0381d486d03d","country":"US","name":"Mount Olive","lat":"33.67094","lng":"-86.8561"},{"id":"1f3653c4-0f9c-4734-8cec-47c08c1aff39","country":"US","name":"Mount Vernon","lat":"31.08518","lng":"-88.01333"},{"id":"998145f7-e92a-4fa5-a391-23e661c84491","country":"US","name":"Mountain Brook","lat":"33.50094","lng":"-86.75221"},{"id":"99d5fde6-a2a2-496f-a915-7653a274b92a","country":"US","name":"Munford","lat":"33.52983","lng":"-85.9508"},{"id":"4fa6507c-6c6c-495d-b939-d946a1dd5d41","country":"US","name":"Muscle Shoals","lat":"34.74481","lng":"-87.66753"},{"id":"f388c331-3218-490d-9c04-9d5d3823d42e","country":"US","name":"New Brockton","lat":"31.38572","lng":"-85.92939"},{"id":"1851adf2-a474-43be-a851-ff997b32b6bd","country":"US","name":"New Hope","lat":"34.53712","lng":"-86.39426"},{"id":"32946c35-90a3-4ce7-8a5f-75d7227e3728","country":"US","name":"New Market","lat":"34.91003","lng":"-86.42779"},{"id":"683d39a9-bacc-4e3c-b97e-b8eafb7b0389","country":"US","name":"Newton","lat":"31.33517","lng":"-85.60521"},{"id":"8055f7a5-41e3-4ae6-9625-2b9cb315e026","country":"US","name":"North Bibb","lat":"33.20401","lng":"-87.15305"},{"id":"1ef71ac4-10c6-4a8e-be5b-7d524082dc37","country":"US","name":"Northport","lat":"33.22901","lng":"-87.57723"},{"id":"288b8e89-02b3-4127-8453-9bf4a27d14e2","country":"US","name":"Odenville","lat":"33.67732","lng":"-86.39665"},{"id":"6ac9bbcb-3c82-4956-80b1-9f6cf20c22c2","country":"US","name":"Ohatchee","lat":"33.78343","lng":"-86.00247"},{"id":"bf3cc5b2-146d-4475-991c-2627ee581ce6","country":"US","name":"Opelika","lat":"32.64541","lng":"-85.37828"},{"id":"3808a3fd-5c87-42c4-8e93-250ed5981346","country":"US","name":"Oneonta","lat":"33.94815","lng":"-86.47276"},{"id":"4ef259c6-6ace-479a-bf39-f48d95ef1135","country":"US","name":"Opp","lat":"31.28267","lng":"-86.25551"},{"id":"52fc0c77-8ddf-49c2-a280-f4f5336fb613","country":"US","name":"Orange Beach","lat":"30.29437","lng":"-87.57359"},{"id":"f4cd2d6c-276a-489c-8750-a99de3e89cd6","country":"US","name":"Owens Cross Roads","lat":"34.58815","lng":"-86.45888"},{"id":"2850f536-677e-4175-90a0-40e9628da919","country":"US","name":"Oxford","lat":"33.61427","lng":"-85.83496"},{"id":"d99f7e48-cb72-4ad0-a7c4-f10d06f0ac4e","country":"US","name":"Ozark","lat":"31.45906","lng":"-85.64049"},{"id":"1dc869ec-9004-4b91-afe8-1105a97e4b65","country":"US","name":"Pelham","lat":"33.28567","lng":"-86.80999"},{"id":"53c422ea-18b0-4306-92ed-a3c003ab46d2","country":"US","name":"Pell City","lat":"33.58621","lng":"-86.28609"},{"id":"adddc444-465d-48fc-b642-1236d71ca9b3","country":"US","name":"Phenix City","lat":"32.47098","lng":"-85.00077"},{"id":"8d5d282d-59a6-4d85-87fc-fbeb5b0bad97","country":"US","name":"Phil Campbell","lat":"34.35093","lng":"-87.70642"},{"id":"26b7570f-cfa1-4698-a853-12f3c1bb2814","country":"US","name":"Piedmont","lat":"33.92455","lng":"-85.61135"},{"id":"0e5d15c2-d794-4199-8059-db78849138a0","country":"US","name":"Pike Road","lat":"32.28431","lng":"-86.10302"},{"id":"db6c9bb0-9181-43d0-8f13-ad28c03c9ff2","country":"US","name":"Pine Level","lat":"32.58374","lng":"-86.46553"},{"id":"f04d4f2c-4b82-43d9-a165-6f9c5d81cb76","country":"US","name":"Pinson","lat":"33.68899","lng":"-86.68332"},{"id":"4d6f2ef1-3070-435d-9097-2df0777bba7e","country":"US","name":"Pleasant Grove","lat":"33.49094","lng":"-86.97027"},{"id":"069fc07e-4ce8-4a13-8a98-ef4989f0e299","country":"US","name":"Point Clear","lat":"30.47408","lng":"-87.91916"},{"id":"0c6c165a-f9c0-4ead-91c3-9dedac55e373","country":"US","name":"Prattville","lat":"32.46402","lng":"-86.4597"},{"id":"2186c2cf-ff8f-42e5-a203-375a9c123ddf","country":"US","name":"Priceville","lat":"34.52509","lng":"-86.89473"},{"id":"f8afbda3-ae5b-4194-aa63-e976259dae39","country":"US","name":"Prichard","lat":"30.7388","lng":"-88.07889"},{"id":"4449b7f9-42fa-4c57-b53c-fd6dc11a6a3c","country":"US","name":"Ragland","lat":"33.74454","lng":"-86.15581"},{"id":"141d5c5c-e6bb-4d97-909b-fa185b1d868e","country":"US","name":"Rainbow City","lat":"33.95482","lng":"-86.04192"},{"id":"6406374d-3581-4d90-8f88-932118c853f7","country":"US","name":"Rainsville","lat":"34.49425","lng":"-85.84775"},{"id":"c9400ad2-a695-48ff-b4c6-cddcee4a83c7","country":"US","name":"Red Bay","lat":"34.43982","lng":"-88.14087"},{"id":"10c594d0-1973-4b72-8de5-df0378c22bcc","country":"US","name":"Reform","lat":"33.37845","lng":"-88.0153"},{"id":"3b2b4ced-48d5-4161-a99b-abf14972ae64","country":"US","name":"Rehobeth","lat":"31.12296","lng":"-85.45271"},{"id":"095e6523-b123-4ac1-9b9b-9d49b5e874d5","country":"US","name":"Riverside","lat":"33.60621","lng":"-86.20442"},{"id":"0b81dc94-3961-40df-b9a2-936598f32c53","country":"US","name":"Roanoke","lat":"33.15123","lng":"-85.37217"},{"id":"19aa9d00-527c-4e30-a30a-92005c8fc098","country":"US","name":"Robertsdale","lat":"30.5538","lng":"-87.71193"},{"id":"86f2f9f2-af9e-45e3-b899-692c23a3bdf4","country":"US","name":"Rock Creek","lat":"33.47705","lng":"-87.08027"},{"id":"ca1e1229-565a-4c59-8ace-c02de0079a82","country":"US","name":"Rockford","lat":"32.88957","lng":"-86.21969"},{"id":"e8e58eb1-4a1c-4f2b-9658-c4d0ebc0ff70","country":"US","name":"Rogersville","lat":"34.82578","lng":"-87.29676"},{"id":"cf0eb0f6-92bf-48b6-84db-4d678f858e3f","country":"US","name":"Russellville","lat":"34.50787","lng":"-87.72864"},{"id":"a3584283-eb87-4572-bd1a-d21fb9842b47","country":"US","name":"Saks","lat":"33.69871","lng":"-85.83969"},{"id":"40e20ac0-35cb-4fd3-9285-607f2130ae8c","country":"US","name":"Samson","lat":"31.11295","lng":"-86.04605"},{"id":"cd91e1e2-1959-4ec3-aa9c-8c1cc3c34e4f","country":"US","name":"Saraland","lat":"30.82074","lng":"-88.07056"},{"id":"2a0b6da9-5f04-4339-a2bc-4bfc047165f3","country":"US","name":"Sardis City","lat":"34.17426","lng":"-86.12275"},{"id":"fe0bb674-1678-4d14-abab-7d257360de86","country":"US","name":"Satsuma","lat":"30.85324","lng":"-88.05611"},{"id":"0ef33379-bd80-43ef-9146-a6c2c6e51fe8","country":"US","name":"Scottsboro","lat":"34.67231","lng":"-86.03415"},{"id":"c7451db1-bb5e-4e9a-b56f-110299cc0bf8","country":"US","name":"Selma","lat":"32.40736","lng":"-87.0211"},{"id":"753435ea-8544-4150-b3a6-856ab9e81eb9","country":"US","name":"Semmes","lat":"30.77824","lng":"-88.25917"},{"id":"782b6acf-57dc-453d-b3e4-6d008674ebe0","country":"US","name":"Sheffield","lat":"34.76509","lng":"-87.69864"},{"id":"3c4f169d-81b5-472e-8247-68e374f37054","country":"US","name":"Shelby","lat":"33.1104","lng":"-86.58415"},{"id":"ef28f4d4-20b8-425b-9063-9c4c68cba4f3","country":"US","name":"Slocomb","lat":"31.10823","lng":"-85.59438"},{"id":"c794009a-204d-4cfe-9efd-f1c4684f7142","country":"US","name":"Smiths Station","lat":"32.54014","lng":"-85.09855"},{"id":"2d23237f-a3c7-4b1b-b541-fc7b6005a112","country":"US","name":"Smoke Rise","lat":"33.89177","lng":"-86.82027"},{"id":"afc79790-be42-4d32-9d50-a5fba85b972e","country":"US","name":"Southside","lat":"33.92454","lng":"-86.02247"},{"id":"ca3889ed-0c46-4ff2-94f6-734636a2ca55","country":"US","name":"Spanish Fort","lat":"30.67491","lng":"-87.91527"},{"id":"aedf1494-b7f6-425a-bd91-adb5a82858c1","country":"US","name":"Springville","lat":"33.77505","lng":"-86.47191"},{"id":"f1135a59-bb56-4d9f-8a7d-7bc1a67bf51a","country":"US","name":"Steele","lat":"33.93982","lng":"-86.20164"},{"id":"b94e3dc0-95cc-4426-843e-3ecdb041a0dd","country":"US","name":"Stevenson","lat":"34.86869","lng":"-85.83942"},{"id":"9acc61e3-7204-4f6a-bcbf-259a36f5d34b","country":"US","name":"Stewartville","lat":"33.07929","lng":"-86.24442"},{"id":"25e9ef96-3c7f-4280-94c1-211fa073304f","country":"US","name":"Sulligent","lat":"33.90177","lng":"-88.13448"},{"id":"73bb9718-bbc6-4194-be46-506be5d2ecf3","country":"US","name":"Sumiton","lat":"33.75566","lng":"-87.05"},{"id":"090bf8f3-8a8c-4268-8f6a-f55422716a22","country":"US","name":"Summerdale","lat":"30.4877","lng":"-87.69971"},{"id":"25451399-f874-47a3-81d5-17a61f5169a4","country":"US","name":"Sylacauga","lat":"33.17317","lng":"-86.25164"},{"id":"4935b6c5-3154-4aae-b96c-3773a1f13e79","country":"US","name":"Sylvan Springs","lat":"33.51566","lng":"-87.01499"},{"id":"2c9331f3-b573-44ff-b678-73d76d6f1a29","country":"US","name":"Sylvania","lat":"34.56231","lng":"-85.81247"},{"id":"e8b9b374-ab33-41ab-a094-99c0aeb16de3","country":"US","name":"Talladega","lat":"33.43594","lng":"-86.1058"},{"id":"f07a63e7-aaa8-450a-b178-71c9f9a96f93","country":"US","name":"Tallassee","lat":"32.53597","lng":"-85.89329"},{"id":"8e846de3-0422-46ef-aa9d-60eeda7988b4","country":"US","name":"Tarrant","lat":"33.58344","lng":"-86.77277"},{"id":"c48f8fe9-f1cb-4099-be6e-641ea246ae89","country":"US","name":"Taylor","lat":"31.1649","lng":"-85.46827"},{"id":"a96fc112-011f-499d-9b24-1d01f46e54a9","country":"US","name":"Taylor","lat":"31.97543","lng":"-86.2333"},{"id":"f153de1c-3d25-4e20-8436-edd7e3a76471","country":"US","name":"Theodore","lat":"30.54769","lng":"-88.17528"},{"id":"9638db6f-6257-4eeb-95da-ae98f5eb3006","country":"US","name":"Thomasville","lat":"31.91349","lng":"-87.73584"},{"id":"cf4914fd-20df-42f1-8b7f-53d1aa327712","country":"US","name":"Thorsby","lat":"32.91568","lng":"-86.71582"},{"id":"6070fbbf-ce3d-4ac7-b2a0-5103477cc1f0","country":"US","name":"Tillmans Corner","lat":"30.59019","lng":"-88.17084"},{"id":"8449e6b1-a839-4aca-b0c0-3bdffa215584","country":"US","name":"Town Creek","lat":"34.6812","lng":"-87.40613"},{"id":"2a2efbd3-7a8d-473c-b306-702520c65ef2","country":"US","name":"Trinity","lat":"34.60676","lng":"-87.08835"},{"id":"a7204df3-462c-4236-a50e-f13eda0cd5c9","country":"US","name":"Troy","lat":"31.80877","lng":"-85.96995"},{"id":"b1fcb6e8-e6aa-40c5-a235-1941d8f1edb3","country":"US","name":"Trussville","lat":"33.61983","lng":"-86.60888"},{"id":"e80f8b71-6b8b-41f2-9e74-284b4f44e249","country":"US","name":"Tuscaloosa","lat":"33.20984","lng":"-87.56917"},{"id":"357874c5-03ae-44c2-b296-4d11846ed46e","country":"US","name":"Tuscumbia","lat":"34.7312","lng":"-87.70253"},{"id":"0d8ac6aa-f169-4b1b-adea-5a3e329b9282","country":"US","name":"Tuskegee","lat":"32.42415","lng":"-85.69096"},{"id":"9b6085f6-adb6-4b53-b049-fef9eaeac0d2","country":"US","name":"Union Springs","lat":"32.14432","lng":"-85.71495"},{"id":"359a1079-a44c-4c5a-8330-d707db2da709","country":"US","name":"Uniontown","lat":"32.44958","lng":"-87.51417"},{"id":"c20c6347-d739-49b5-994a-b20c92fd9ecf","country":"US","name":"Valley","lat":"32.81874","lng":"-85.17939"},{"id":"0ec93f02-b611-4b71-a63b-6018533bd3e6","country":"US","name":"Valley Grande","lat":"32.50902","lng":"-86.98749"},{"id":"db2008cc-af2e-4e8c-b46a-0131668b2b77","country":"US","name":"Vandiver","lat":"33.47066","lng":"-86.51332"},{"id":"66bac5a6-2dee-4211-b9c6-a7a7924d1cd5","country":"US","name":"Vance","lat":"33.17428","lng":"-87.23361"},{"id":"389f33af-bb52-4705-83f0-ac0dee4328a4","country":"US","name":"Vernon","lat":"33.75705","lng":"-88.10892"},{"id":"0d9dfe02-09f7-480e-a67b-2b17173c98b6","country":"US","name":"Vestavia Hills","lat":"33.44872","lng":"-86.78777"},{"id":"9077b2b5-e7af-40a5-99db-410773864e55","country":"US","name":"Vincent","lat":"33.38455","lng":"-86.41192"},{"id":"d904474c-b966-4335-aa64-9a4f6cf8da43","country":"US","name":"Warrior","lat":"33.81427","lng":"-86.80944"},{"id":"14e8e227-b7cf-4819-b54f-7e7d630d4bd4","country":"US","name":"Weaver","lat":"33.75205","lng":"-85.81135"},{"id":"f85cbca9-340f-4340-a86c-677e8391e437","country":"US","name":"Webb","lat":"31.26045","lng":"-85.27327"},{"id":"42607552-7a82-4c24-9ed5-390fb3f36992","country":"US","name":"Wedowee","lat":"33.309","lng":"-85.48467"},{"id":"880b04ab-8e0e-4621-9410-a9bc3d8c35ac","country":"US","name":"West Blocton","lat":"33.11817","lng":"-87.125"},{"id":"be76a9bb-5a15-4250-ba77-89157a135c79","country":"US","name":"Westover","lat":"33.34955","lng":"-86.53582"},{"id":"7c3cfee7-e967-4b69-b827-6ba265436a1d","country":"US","name":"Wetumpka","lat":"32.54374","lng":"-86.21191"},{"id":"befd6a61-e057-4664-ac44-f085d1b247fb","country":"US","name":"Whitesboro","lat":"34.16343","lng":"-86.06942"},{"id":"112e64a4-86c0-47c8-9aba-cda243479ce6","country":"US","name":"Wilsonville","lat":"33.23428","lng":"-86.48359"},{"id":"e66e185f-5ea8-4c42-b3f8-9ab48023d8b8","country":"US","name":"Winfield","lat":"33.92899","lng":"-87.81725"},{"id":"e8424287-59d9-4af7-9f17-7cc60014894f","country":"US","name":"Woodstock","lat":"33.20678","lng":"-87.15"},{"id":"7a92671d-9ec8-4e17-bcf7-3b907a898d51","country":"US","name":"York","lat":"32.48625","lng":"-88.29642"},{"id":"5ab74914-8737-4b48-ab43-e4d44840d17e","country":"US","name":"Alexander","lat":"34.62954","lng":"-92.44127"},{"id":"dc2e5fe1-6e79-4ba8-a185-eba005e15881","country":"US","name":"Alma","lat":"35.47787","lng":"-94.22188"},{"id":"a0f78abc-33e5-4a12-b7c4-628625e26771","country":"US","name":"Arkadelphia","lat":"34.12093","lng":"-93.05378"},{"id":"61bdf95e-ff7b-4de4-a374-f834143353d5","country":"US","name":"Arkansas City","lat":"33.60872","lng":"-91.20678"},{"id":"67458795-3832-4502-88b4-9bbf8ed6fba3","country":"US","name":"Ash Flat","lat":"36.22396","lng":"-91.60848"},{"id":"02fbd9bd-61d8-4dcb-84e8-c72e8ba3fa0c","country":"US","name":"Ashdown","lat":"33.67429","lng":"-94.13131"},{"id":"cc9e572a-cf06-43cf-b449-1daf1f5b7ce8","country":"US","name":"Atkins","lat":"35.24647","lng":"-92.93656"},{"id":"9c5605ab-926e-49ec-87e4-75ba2093191e","country":"US","name":"Augusta","lat":"35.28231","lng":"-91.36541"},{"id":"3e22beb3-886d-4632-af51-20990506c8c2","country":"US","name":"Austin","lat":"34.99842","lng":"-91.98376"},{"id":"67b192fc-22d3-410f-add3-4ab6f80594ca","country":"US","name":"Bald Knob","lat":"35.30981","lng":"-91.56791"},{"id":"9c8f8d5e-14a6-4bd2-b068-0bec410d8180","country":"US","name":"Barling","lat":"35.32565","lng":"-94.3016"},{"id":"2b6ee44f-1f72-4092-b3d6-f56eb69d6a60","country":"US","name":"Batesville","lat":"35.7698","lng":"-91.64097"},{"id":"d9b7b833-7a95-4299-b660-363ef71bfb8a","country":"US","name":"Bay","lat":"35.7423","lng":"-90.56233"},{"id":"649e4d74-63d9-44ce-b91b-2d84a70c51d1","country":"US","name":"Beebe","lat":"35.07064","lng":"-91.87959"},{"id":"7d9e0209-9afa-43bd-84f9-1ddf21608108","country":"US","name":"Bella Vista","lat":"36.4807","lng":"-94.27134"},{"id":"d08f3a47-126c-4ca3-9a47-115c08436f0e","country":"US","name":"Benton","lat":"34.56454","lng":"-92.58683"},{"id":"20408895-a14a-478d-9ed9-d5182b3aa99b","country":"US","name":"Bentonville","lat":"36.37285","lng":"-94.20882"},{"id":"46ad0703-ba8c-4641-9777-f3cec8a24ca3","country":"US","name":"Berryville","lat":"36.36479","lng":"-93.56797"},{"id":"f172298b-0954-4041-a8a2-c67450ce6153","country":"US","name":"Bethel Heights","lat":"36.21424","lng":"-94.12937"},{"id":"2242552c-93f0-4eb8-8656-85db8760874f","country":"US","name":"Blytheville","lat":"35.9273","lng":"-89.91898"},{"id":"022feafa-f277-4be6-b8fb-4e18cab33a94","country":"US","name":"Bono","lat":"35.90868","lng":"-90.80262"},{"id":"cf81c93a-f02e-424a-9ae9-cab8f349c25b","country":"US","name":"Booneville","lat":"35.14009","lng":"-93.92159"},{"id":"ad2de86f-4677-4272-a943-185ffb411b27","country":"US","name":"Brinkley","lat":"34.88787","lng":"-91.19457"},{"id":"dd7883cc-a14a-43c9-ae54-ef9578a11664","country":"US","name":"Brookland","lat":"35.90007","lng":"-90.58205"},{"id":"fb7be61a-e348-40be-bcdd-79e2b90c1661","country":"US","name":"Bryant","lat":"34.59593","lng":"-92.48905"},{"id":"c390ee3e-90e3-4337-8fda-e8a3c2978042","country":"US","name":"Bull Shoals","lat":"36.38396","lng":"-92.58155"},{"id":"c70d0328-d91b-42cb-8bbe-c89528c2de10","country":"US","name":"Cabot","lat":"34.97453","lng":"-92.01653"},{"id":"efea512a-2342-42d6-a5cf-bcae46832df9","country":"US","name":"Calico Rock","lat":"36.11951","lng":"-92.13599"},{"id":"e7b39c31-7577-4295-a629-b189a72e85fe","country":"US","name":"Camden","lat":"33.58456","lng":"-92.83433"},{"id":"e9aabc13-f659-44a6-bd75-5d378db277ef","country":"US","name":"Caraway","lat":"35.75813","lng":"-90.32232"},{"id":"4e3e6c91-cb80-48d7-a07a-85363b0d9f6b","country":"US","name":"Carlisle","lat":"34.78315","lng":"-91.74652"},{"id":"eb99ef59-874c-4ce7-a71d-b8c112f39e19","country":"US","name":"Cave City","lat":"35.94174","lng":"-91.54847"},{"id":"b9ac9ed9-635b-44d6-ad21-b6772a5d0d89","country":"US","name":"Cave Springs","lat":"36.26341","lng":"-94.23187"},{"id":"6f4b8484-464d-473d-87e8-54c052eb5660","country":"US","name":"Cedarville","lat":"35.56981","lng":"-94.36688"},{"id":"647a04ae-1778-4da8-9ad9-f01557b30416","country":"US","name":"Centerton","lat":"36.3598","lng":"-94.28521"},{"id":"9ca375fc-84e4-402d-8e62-b4dbb8a26f19","country":"US","name":"Charleston","lat":"35.29704","lng":"-94.03632"},{"id":"f40115ba-f407-4838-828b-a04e88cfb0ae","country":"US","name":"Cherokee Village","lat":"36.29784","lng":"-91.51597"},{"id":"56b55482-81ff-4538-a618-a93f23c9798f","country":"US","name":"Clarendon","lat":"34.69315","lng":"-91.31374"},{"id":"46fcdf8c-92db-4e31-a5be-2794df117c69","country":"US","name":"Clarksville","lat":"35.47147","lng":"-93.46657"},{"id":"1281f084-1545-4f04-8eaf-3caaa2a2f545","country":"US","name":"Clinton","lat":"35.59147","lng":"-92.46044"},{"id":"d262c215-8015-4896-8247-72397180c013","country":"US","name":"Coal Hill","lat":"35.43731","lng":"-93.67297"},{"id":"d19e1cc0-6b55-4cb0-9868-e7276ba2ea87","country":"US","name":"Conway","lat":"35.0887","lng":"-92.4421"},{"id":"43055861-db15-4236-af31-4f45211cce2c","country":"US","name":"Corning","lat":"36.40784","lng":"-90.57983"},{"id":"de2469f9-7425-4ab7-afb0-1a5c37185ad5","country":"US","name":"Crossett","lat":"33.12818","lng":"-91.96124"},{"id":"d64cfb9a-8df7-43ae-962d-f30307b90d26","country":"US","name":"Danville","lat":"35.05398","lng":"-93.39352"},{"id":"230736f2-3f78-453d-9f5c-7169783827f9","country":"US","name":"Dardanelle","lat":"35.22314","lng":"-93.15795"},{"id":"2d49ed80-c2a5-4a9a-9458-2dbcc5a23d3a","country":"US","name":"De Queen","lat":"34.03789","lng":"-94.34132"},{"id":"e9de408f-6a16-4c7e-a658-d695f6616bad","country":"US","name":"De Witt","lat":"34.29288","lng":"-91.3379"},{"id":"4eaba0e2-dcc7-434b-85d2-2d370036d837","country":"US","name":"Decatur","lat":"36.33591","lng":"-94.46077"},{"id":"86422c0a-7c3c-4966-8fea-e0292d49e444","country":"US","name":"Dermott","lat":"33.52539","lng":"-91.43595"},{"id":"73ff05f7-5381-4d9e-871d-8e665aabf10a","country":"US","name":"Des Arc","lat":"34.97704","lng":"-91.49513"},{"id":"160fe62a-661e-4678-8005-a1c25076403e","country":"US","name":"Diaz","lat":"35.63841","lng":"-91.26513"},{"id":"639c51e4-3b16-4819-a881-4cfe4aea6f30","country":"US","name":"Dierks","lat":"34.11928","lng":"-94.01658"},{"id":"b00987e6-4603-4f37-b164-37b11b2a079b","country":"US","name":"Dover","lat":"35.40147","lng":"-93.11434"},{"id":"bcc31880-e1cd-4bed-a915-57bb97eb76c5","country":"US","name":"Dumas","lat":"33.88705","lng":"-91.49179"},{"id":"ad807e98-4f9b-4cc0-a993-8be9285db0df","country":"US","name":"Earle","lat":"35.27509","lng":"-90.46677"},{"id":"4587e179-fb6f-448e-8bcc-eff80d390ca4","country":"US","name":"East End","lat":"34.55065","lng":"-92.34099"},{"id":"bfdc8efd-7c51-42fe-92c2-e503119866c3","country":"US","name":"El Dorado","lat":"33.20763","lng":"-92.66627"},{"id":"b2e0b023-3fe1-4264-a17a-8e8f261b873a","country":"US","name":"Elkins","lat":"36.00147","lng":"-94.00825"},{"id":"ece0ae75-035c-48ec-8c40-e9558f051003","country":"US","name":"Elm Springs","lat":"36.20619","lng":"-94.23437"},{"id":"637ba501-3637-4778-bfab-21f7e1334dae","country":"US","name":"England","lat":"34.54426","lng":"-91.96903"},{"id":"82ffb7c8-d2cb-4a43-a0a0-33a1def9863c","country":"US","name":"Eudora","lat":"33.10957","lng":"-91.26206"},{"id":"37e42023-3caf-4d22-8a7f-c7b768ad7613","country":"US","name":"Eureka Springs","lat":"36.40118","lng":"-93.73797"},{"id":"4e9b976c-d672-4efc-9ffb-058c61190e93","country":"US","name":"Fairfield Bay","lat":"35.59424","lng":"-92.27793"},{"id":"295d9219-c13c-48d4-8a90-5ec3f822e2e7","country":"US","name":"Farmington","lat":"36.04202","lng":"-94.24715"},{"id":"d5cb7cd5-81b3-4f77-97c5-9566f08e9bd3","country":"US","name":"Fayetteville","lat":"36.06258","lng":"-94.15743"},{"id":"47f09b8b-d100-44ec-adfa-5ef0687107a2","country":"US","name":"Flippin","lat":"36.27896","lng":"-92.59711"},{"id":"197986d2-1f8e-4889-adb3-9b0aaf9f92c2","country":"US","name":"Fordyce","lat":"33.81372","lng":"-92.41293"},{"id":"dbbe8da7-c51a-499e-8eb3-8e4842d85216","country":"US","name":"Forrest City","lat":"35.00815","lng":"-90.78983"},{"id":"a655217d-3a78-46cd-a5d3-a1355714d110","country":"US","name":"Fort Smith","lat":"35.38592","lng":"-94.39855"},{"id":"a630be10-8a8e-473b-9f56-b5eaa78d31b4","country":"US","name":"Gassville","lat":"36.28312","lng":"-92.49405"},{"id":"ed0adb42-78b0-48db-b619-4b8c539c2a3a","country":"US","name":"Gentry","lat":"36.26758","lng":"-94.48466"},{"id":"e6dfe35d-212d-4143-aaf7-0183f31bffb5","country":"US","name":"Gibson","lat":"34.88426","lng":"-92.2357"},{"id":"59ea6faf-3242-48e2-8ffd-373290e6c0a6","country":"US","name":"Glenwood","lat":"34.32677","lng":"-93.55074"},{"id":"b3d3883a-44ad-4be4-89e7-e5d8f4c27023","country":"US","name":"Gosnell","lat":"35.95979","lng":"-89.97203"},{"id":"0e1ebc81-b66b-4805-9522-33c1be402497","country":"US","name":"Goshen","lat":"36.10119","lng":"-93.99131"},{"id":"610bc708-7539-4fe0-8924-8787bfab26d7","country":"US","name":"Gravel Ridge","lat":"34.86842","lng":"-92.1907"},{"id":"63d1a11e-b336-4892-80b9-82fda2c08dc9","country":"US","name":"Gravette","lat":"36.42202","lng":"-94.45355"},{"id":"efc40ae0-4b06-473e-a7bd-667c9e7a2248","country":"US","name":"Green Forest","lat":"36.33535","lng":"-93.43602"},{"id":"e512394f-edec-442b-aef5-c2acb364b3cf","country":"US","name":"Greenbrier","lat":"35.23397","lng":"-92.38765"},{"id":"0eb3b950-7c69-4ee3-ad67-806f8d536e1f","country":"US","name":"Greenland","lat":"35.99425","lng":"-94.1752"},{"id":"c68e49d8-8986-4ce1-96f7-f23dd53396fe","country":"US","name":"Greenwood","lat":"35.21565","lng":"-94.25577"},{"id":"fbb7fc82-4e45-4910-ba2a-25684a8038ce","country":"US","name":"Gurdon","lat":"33.92094","lng":"-93.15406"},{"id":"deffff2f-7528-47d5-ae12-1261e99bdb36","country":"US","name":"Hamburg","lat":"33.22818","lng":"-91.79763"},{"id":"a9be9962-2f69-454e-81ff-46876fd55358","country":"US","name":"Hampton","lat":"33.53789","lng":"-92.46988"},{"id":"b83774ee-ad21-4909-adec-ffdccb80f93d","country":"US","name":"Harrisburg","lat":"35.56425","lng":"-90.71678"},{"id":"9b7781be-58ec-428e-9353-6a2a05153a30","country":"US","name":"Harrison","lat":"36.22979","lng":"-93.10768"},{"id":"dad6a268-094e-458d-85c2-099eb45dc91f","country":"US","name":"Haskell","lat":"34.50148","lng":"-92.63655"},{"id":"906e03ca-d668-4ab6-8102-f857961f191b","country":"US","name":"Hazen","lat":"34.78093","lng":"-91.58097"},{"id":"6bb4d1c7-13b7-4926-ac37-52061ec53671","country":"US","name":"Heber Springs","lat":"35.49147","lng":"-92.03126"},{"id":"9f498191-9244-4f91-a968-e084d863c4a8","country":"US","name":"Helena","lat":"34.52955","lng":"-90.59177"},{"id":"af6e3735-385d-4a5f-99c1-003093babee1","country":"US","name":"Highland","lat":"36.2759","lng":"-91.52403"},{"id":"ad398777-747d-49b3-a196-c3ece88ec3f8","country":"US","name":"Holiday Island","lat":"36.48535","lng":"-93.73214"},{"id":"94973878-5c41-44dc-bb03-6d4638a86686","country":"US","name":"Hope","lat":"33.66706","lng":"-93.59157"},{"id":"55adaea5-3c32-47e3-bbd6-f53972d0acae","country":"US","name":"Horatio","lat":"33.93845","lng":"-94.35715"},{"id":"7ee11c93-5d7f-4597-b350-7054b3cd9507","country":"US","name":"Horseshoe Bend","lat":"36.22923","lng":"-91.76431"},{"id":"dcfd62a0-539b-4c28-9112-f24966fb0b05","country":"US","name":"Hot Springs","lat":"34.5037","lng":"-93.05518"},{"id":"03fae99c-70d8-4cad-9c7f-6c9f13f85cab","country":"US","name":"Hot Springs Village","lat":"34.67204","lng":"-92.99879"},{"id":"7ee9418b-681e-4f1e-bdd4-836d574ceecf","country":"US","name":"Hoxie","lat":"36.05035","lng":"-90.97512"},{"id":"2c8baeee-c497-4832-858a-ee37c78ddb23","country":"US","name":"Hughes","lat":"34.94926","lng":"-90.47149"},{"id":"47b7915b-312e-425d-8b99-e3db8ba273dc","country":"US","name":"Huntsville","lat":"36.08619","lng":"-93.7413"},{"id":"7bf4b60c-3bcc-4ab7-9b78-c0ca9fd9b587","country":"US","name":"Jacksonville","lat":"34.8662","lng":"-92.11015"},{"id":"8595ab77-bd3a-47f8-9d9a-a8fa18b0391f","country":"US","name":"Jasper","lat":"36.00813","lng":"-93.18657"},{"id":"9d041cc5-e7b2-44c8-9dae-1c3c1f1b7f2f","country":"US","name":"Johnson","lat":"36.13286","lng":"-94.16548"},{"id":"a7271506-bc84-4444-988d-7d700c0ab5cf","country":"US","name":"Jonesboro","lat":"35.8423","lng":"-90.70428"},{"id":"3b5c514f-01cb-4de7-988a-a040c4c9c65c","country":"US","name":"Judsonia","lat":"35.27009","lng":"-91.63986"},{"id":"667d8e6b-71cc-40ff-b197-d80a303aaef2","country":"US","name":"Kensett","lat":"35.23175","lng":"-91.66764"},{"id":"8766882a-c25a-49e4-978b-b9d902575a01","country":"US","name":"Lake City","lat":"35.81619","lng":"-90.43427"},{"id":"608719ba-01ca-4c50-b774-e485468b0293","country":"US","name":"Lake Hamilton","lat":"34.42453","lng":"-93.09518"},{"id":"18d11b8d-73a9-415e-a693-9840a9b1fcf7","country":"US","name":"Lake Village","lat":"33.32873","lng":"-91.28178"},{"id":"d529e95d-5772-4d44-9e86-c33ba7328438","country":"US","name":"Lamar","lat":"35.44064","lng":"-93.38796"},{"id":"a702d513-fce7-4fb4-babd-08a2c96d27f4","country":"US","name":"Landmark","lat":"34.6112","lng":"-92.3196"},{"id":"1a0b79f4-f555-4154-8ac9-4004ea13a0ca","country":"US","name":"Lavaca","lat":"35.3362","lng":"-94.17326"},{"id":"605639d9-51d1-482b-9e74-e54008cb3e52","country":"US","name":"Leachville","lat":"35.93591","lng":"-90.25788"},{"id":"b8528b67-2f2c-472c-991e-47ebd0ae3c04","country":"US","name":"Lepanto","lat":"35.61119","lng":"-90.32982"},{"id":"e0050806-3fc0-43c6-8911-317c4b728580","country":"US","name":"Lewisville","lat":"33.35846","lng":"-93.57768"},{"id":"b3489be8-8748-4908-adde-b7381e3df338","country":"US","name":"Lincoln","lat":"35.94953","lng":"-94.42355"},{"id":"226bffcf-c17b-40f2-8948-210d8cb98a63","country":"US","name":"Little Flock","lat":"36.38591","lng":"-94.1352"},{"id":"9f28cbc0-e835-400d-845c-4626e58e6363","country":"US","name":"Little Rock","lat":"34.74648","lng":"-92.28959"},{"id":"135ec951-76cd-4a69-9b9a-12c3f0208e16","country":"US","name":"London","lat":"35.32897","lng":"-93.25296"},{"id":"206ada34-5b03-4c4d-aa11-c2a0bcf7eab8","country":"US","name":"Lonoke","lat":"34.78398","lng":"-91.89986"},{"id":"6df34a6d-8f9c-4742-a384-8ab7cf48829a","country":"US","name":"Lowell","lat":"36.25535","lng":"-94.13076"},{"id":"cb1c45ae-463d-492a-883b-8599a842462c","country":"US","name":"Luxora","lat":"35.75619","lng":"-89.92814"},{"id":"2e6ba35c-3f08-41e7-837b-a7862c611740","country":"US","name":"Magnolia","lat":"33.26707","lng":"-93.23933"},{"id":"92386e16-7001-4ac3-ac69-89c0a2776d22","country":"US","name":"Malvern","lat":"34.36231","lng":"-92.81295"},{"id":"5ec8046d-149b-46bd-8fbd-8069a4bd39f4","country":"US","name":"Manila","lat":"35.88007","lng":"-90.16704"},{"id":"de7378ba-7804-4fc7-beb2-4988b600a59c","country":"US","name":"Mansfield","lat":"35.05954","lng":"-94.25271"},{"id":"5ba903c4-0d7c-47d4-889a-563719852b2e","country":"US","name":"Marianna","lat":"34.77371","lng":"-90.75761"},{"id":"8a5e9170-e26d-4aad-88e0-eaded44fcc01","country":"US","name":"Marion","lat":"35.21453","lng":"-90.19648"},{"id":"4bd9a7ac-214a-47c6-969a-82e844ebb763","country":"US","name":"Marked Tree","lat":"35.53286","lng":"-90.42066"},{"id":"214d9f09-d348-4549-97c9-6e18650b7c3a","country":"US","name":"Marmaduke","lat":"36.18701","lng":"-90.38316"},{"id":"8b779c4d-9ef5-44ff-85ff-4f3cf17bb9e2","country":"US","name":"Marshall","lat":"35.90896","lng":"-92.63127"},{"id":"bbcedd5a-a9df-4554-9565-108234273b5d","country":"US","name":"Marvell","lat":"34.55566","lng":"-90.91289"},{"id":"f59489d0-551f-4df4-82fd-95de6186c3cb","country":"US","name":"Maumelle","lat":"34.86676","lng":"-92.40432"},{"id":"05b90bad-790e-4629-aa8f-793582b45506","country":"US","name":"Mayflower","lat":"34.95703","lng":"-92.42738"},{"id":"79b2c869-69a0-422d-ae29-9e169a0e1807","country":"US","name":"McAlmont","lat":"34.80842","lng":"-92.18181"},{"id":"eb22cf53-2d31-4262-855a-c4858acd3dc7","country":"US","name":"McCrory","lat":"35.2562","lng":"-91.20012"},{"id":"157de5da-8f7e-47c8-8644-0ebd29c16393","country":"US","name":"McGehee","lat":"33.629","lng":"-91.39956"},{"id":"726032ac-430e-4550-82a4-f067de5985fa","country":"US","name":"Melbourne","lat":"36.05951","lng":"-91.90848"},{"id":"f69231f2-277b-4960-ae77-be714c40eb34","country":"US","name":"Mena","lat":"34.58622","lng":"-94.23966"},{"id":"701a215e-d78a-423d-8b70-291acc534522","country":"US","name":"Midway","lat":"36.38534","lng":"-92.46183"},{"id":"506a9eea-bfd5-4b89-b402-e35b609a989b","country":"US","name":"Mineral Springs","lat":"33.87512","lng":"-93.9138"},{"id":"a90afb64-05c7-4475-a719-664c249817fe","country":"US","name":"Monette","lat":"35.89063","lng":"-90.34427"},{"id":"8a576f16-4da0-4cb3-8741-5350dcdc10b7","country":"US","name":"Monticello","lat":"33.629","lng":"-91.79096"},{"id":"400fb6c2-2bf6-47de-a78d-3545e322c55c","country":"US","name":"Morrilton","lat":"35.15092","lng":"-92.74405"},{"id":"bfa0dceb-dc42-4b4d-adb4-d79cf6356c90","country":"US","name":"Mount Ida","lat":"34.55676","lng":"-93.63408"},{"id":"daf8f5cd-1e87-4997-b622-bbdfda58351c","country":"US","name":"Mountain View","lat":"35.86841","lng":"-92.11765"},{"id":"ff86abd7-76da-4982-bd02-677cbbd84ba3","country":"US","name":"Mountain Home","lat":"36.33534","lng":"-92.38516"},{"id":"c3ec3941-02b0-440a-bb8b-8a75b30a0dbb","country":"US","name":"Mulberry","lat":"35.50064","lng":"-94.05159"},{"id":"f28ce115-7437-4620-a486-c296ebf83d7f","country":"US","name":"Murfreesboro","lat":"34.06233","lng":"-93.6899"},{"id":"cd3ad87d-3bd1-4d0c-b91f-c244de753322","country":"US","name":"Nashville","lat":"33.94567","lng":"-93.84713"},{"id":"136669b8-fbc6-4059-8f22-609673f34bee","country":"US","name":"Newark","lat":"35.70174","lng":"-91.44152"},{"id":"7103dfbd-250e-43bc-a621-6f4f5a4efe66","country":"US","name":"Newport","lat":"35.6048","lng":"-91.2818"},{"id":"e79cbbf7-37a6-4278-84e1-ebd7155e7bc3","country":"US","name":"North Crossett","lat":"33.16568","lng":"-91.94152"},{"id":"023abf41-4771-4432-b681-cd8403453c1b","country":"US","name":"North Little Rock","lat":"34.76954","lng":"-92.26709"},{"id":"d302b006-6c5e-4c16-a581-0b72508e2223","country":"US","name":"Ola","lat":"35.03231","lng":"-93.22323"},{"id":"eed44b29-8c53-44ea-a119-b93ae6e98b89","country":"US","name":"Osceola","lat":"35.70508","lng":"-89.96953"},{"id":"e9b8050f-2c5f-4c05-83d5-6de9ccddba02","country":"US","name":"Ozark","lat":"35.48703","lng":"-93.8277"},{"id":"38a6403d-8b46-476f-a8c7-494d51f5a6c6","country":"US","name":"Paragould","lat":"36.0584","lng":"-90.49733"},{"id":"dfeb7ef0-0730-4ff9-bdfa-221304bd9c92","country":"US","name":"Paris","lat":"35.29203","lng":"-93.72992"},{"id":"27452670-7141-4c93-8cd1-645035abc008","country":"US","name":"Parkin","lat":"35.26342","lng":"-90.57122"},{"id":"da985292-d629-44f4-8668-342c82ac68f5","country":"US","name":"Pea Ridge","lat":"33.92066","lng":"-91.33679"},{"id":"1f24c048-28f1-4d19-9cda-8aad3fb95702","country":"US","name":"Pea Ridge","lat":"36.45396","lng":"-94.1152"},{"id":"cff599bc-0a6e-4eb0-83af-077749fff0df","country":"US","name":"Perryville","lat":"35.00481","lng":"-92.80267"},{"id":"41e6f38b-dcb1-4a9d-be61-e6021fb1384e","country":"US","name":"Piggott","lat":"36.38284","lng":"-90.19065"},{"id":"bd97363e-1151-4da2-ae6b-21deb80e658a","country":"US","name":"Pine Bluff","lat":"34.22843","lng":"-92.0032"},{"id":"05dd9f35-171a-40a2-aa0e-c1906df9939d","country":"US","name":"Piney","lat":"34.50314","lng":"-93.12602"},{"id":"3cd7e411-3d57-4612-8e70-cfc70ed5b5c2","country":"US","name":"Pocahontas","lat":"36.26146","lng":"-90.97123"},{"id":"9c730cb0-bb66-4cb2-bb80-601f57fc3555","country":"US","name":"Pottsville","lat":"35.24814","lng":"-93.04906"},{"id":"7081b223-68a2-4f42-be0a-2f1cdad64d72","country":"US","name":"Prairie Creek","lat":"36.34202","lng":"-94.06187"},{"id":"48837930-462d-4d0f-b25d-1489a69533e5","country":"US","name":"Prairie Grove","lat":"35.97591","lng":"-94.31771"},{"id":"c15c984c-a691-4b58-825a-0a38a9e1a443","country":"US","name":"Prescott","lat":"33.80261","lng":"-93.38101"},{"id":"3e4f6f76-8bd9-4e1c-a52d-e36e7e7b820e","country":"US","name":"Rector","lat":"36.26312","lng":"-90.2926"},{"id":"206d6609-55a4-441b-8ecc-59c5a45028ae","country":"US","name":"Redfield","lat":"34.4451","lng":"-92.1832"},{"id":"f90443d9-8c82-48dc-b69b-487dd1c401b2","country":"US","name":"Rison","lat":"33.95843","lng":"-92.19015"},{"id":"13fe12f2-e4c9-4bb5-8e43-02b1266f80a1","country":"US","name":"Rockwell","lat":"34.46426","lng":"-93.13379"},{"id":"cec24b2c-3947-436c-a3d4-be753c9dfc72","country":"US","name":"Rogers","lat":"36.33202","lng":"-94.11854"},{"id":"feb0d89d-15a9-4852-8e82-7f3b6405183a","country":"US","name":"Russellville","lat":"35.27842","lng":"-93.13379"},{"id":"10cdfcdc-ec31-4f93-a885-38c2ef1dc795","country":"US","name":"Salem","lat":"36.37118","lng":"-91.82265"},{"id":"44cab77b-93f8-44a3-8689-a06e280dda76","country":"US","name":"Salem","lat":"34.62898","lng":"-92.55822"},{"id":"33a2593c-5c45-4c55-a9fd-adc4a0e7feac","country":"US","name":"Searcy","lat":"35.25064","lng":"-91.73625"},{"id":"2621b47b-2450-4e3f-9bd3-283017feacd7","country":"US","name":"Shannon Hills","lat":"34.62009","lng":"-92.39543"},{"id":"7f9dff55-b7db-4dd1-a6c8-72fda8117845","country":"US","name":"Sheridan","lat":"34.30704","lng":"-92.40127"},{"id":"7ca014f1-83b7-4de1-8e71-20e0b4095c38","country":"US","name":"Siloam Springs","lat":"36.18814","lng":"-94.5405"},{"id":"ee44b7ca-e52d-4226-8c94-7d4571bccca9","country":"US","name":"Smackover","lat":"33.36485","lng":"-92.72488"},{"id":"2063c86c-b914-4aa3-874f-32172fb5d0ba","country":"US","name":"Southside","lat":"35.69841","lng":"-91.62347"},{"id":"a57f32ed-a414-4ad4-9fff-9761e02bf08d","country":"US","name":"Springdale","lat":"36.18674","lng":"-94.12881"},{"id":"7e5f1eb4-c60f-4f7d-b15e-3779a61b3cae","country":"US","name":"Stamps","lat":"33.3654","lng":"-93.49518"},{"id":"be60eac1-faa2-46a2-a8d9-adc0868f04a5","country":"US","name":"Star City","lat":"33.94288","lng":"-91.84347"},{"id":"6698d695-a007-4289-8d56-3e98709dbbe3","country":"US","name":"Stuttgart","lat":"34.50037","lng":"-91.55263"},{"id":"cf850b9a-7cb3-4229-9a36-a47904760aac","country":"US","name":"Sulphur Springs","lat":"34.18065","lng":"-92.12348"},{"id":"524d93dc-cd32-42d4-800b-7d4e00bbf05d","country":"US","name":"Texarkana","lat":"33.44179","lng":"-94.03769"},{"id":"6e2a0775-80e9-447b-8c93-070f33c59c2c","country":"US","name":"Tontitown","lat":"36.17786","lng":"-94.23354"},{"id":"f12b3aa6-2f88-4e4b-b5e1-28573f8a1c94","country":"US","name":"Trumann","lat":"35.67369","lng":"-90.50733"},{"id":"7663b150-2329-4567-a2e4-1076282ccb9b","country":"US","name":"Tuckerman","lat":"35.73063","lng":"-91.19846"},{"id":"040a8267-a1a0-4f7e-ba9f-6047611fb522","country":"US","name":"Van Buren","lat":"35.43676","lng":"-94.34827"},{"id":"75af878b-26e8-46ee-8e07-76ff81e62b9c","country":"US","name":"Vilonia","lat":"35.08398","lng":"-92.20793"},{"id":"5624399a-9f36-46b9-94ab-a77155191825","country":"US","name":"Waldo","lat":"33.35151","lng":"-93.29573"},{"id":"f56fa025-29a5-44fb-a217-2e81e13e0b14","country":"US","name":"Waldron","lat":"34.89843","lng":"-94.09076"},{"id":"cb615d6c-e7c3-47fc-8648-f107c85d6d67","country":"US","name":"Walnut Ridge","lat":"36.0684","lng":"-90.95595"},{"id":"1e455364-2947-42b6-9134-6012bf21f7b4","country":"US","name":"Ward","lat":"35.03036","lng":"-91.95042"},{"id":"33aeea5f-bebe-4203-be7a-633f4ab44285","country":"US","name":"Warren","lat":"33.61261","lng":"-92.06458"},{"id":"3a3ad230-3441-4c37-86c3-3840fe34b280","country":"US","name":"West Crossett","lat":"33.14096","lng":"-91.99402"},{"id":"d0e766aa-3ba2-448c-bd5a-c2fa7b523318","country":"US","name":"West Fork","lat":"35.92425","lng":"-94.18854"},{"id":"8d977330-51b2-4b18-b112-42926a76931b","country":"US","name":"West Helena","lat":"34.55066","lng":"-90.64177"},{"id":"19e71c39-4e42-447a-9ca4-8566bdd72696","country":"US","name":"West Memphis","lat":"35.14648","lng":"-90.18454"},{"id":"cf712acc-f116-4c7d-966b-093e1533130e","country":"US","name":"White Hall","lat":"34.27399","lng":"-92.09098"},{"id":"daac08fe-b913-494e-af64-a5bf393b1f77","country":"US","name":"Wrightsville","lat":"34.60232","lng":"-92.21681"},{"id":"79511e40-ad43-4b3b-92db-3172959e6879","country":"US","name":"Wynne","lat":"35.22453","lng":"-90.78678"},{"id":"b07d5017-a6d9-4783-acc2-f79b1089e2b4","country":"US","name":"Yellville","lat":"36.22618","lng":"-92.68489"},{"id":"a05c389f-4049-45c9-9dde-cb9c5b9a515c","country":"US","name":"Chevy Chase","lat":"38.964","lng":"-77.06776"},{"id":"7aa959dc-b0ff-4923-ba6c-428b856d1b54","country":"US","name":"Washington, D.C.","lat":"38.89511","lng":"-77.03637"},{"id":"d6e41055-e8ab-4d86-bcc8-b97795e9907a","country":"US","name":"Bear","lat":"39.62928","lng":"-75.65826"},{"id":"389d4947-ad60-4dfa-8727-57c48703233a","country":"US","name":"Bellefonte","lat":"39.76622","lng":"-75.50936"},{"id":"eee6ad39-a2a0-49ac-912c-c737d2e9354e","country":"US","name":"Bethany Beach","lat":"38.53956","lng":"-75.05518"},{"id":"08c705b6-0a0e-42bf-a5d5-aba3808fcd27","country":"US","name":"Blades","lat":"38.63567","lng":"-75.60993"},{"id":"80894cfe-6f60-4244-986b-6d16111aa6ff","country":"US","name":"Bridgeville","lat":"38.74261","lng":"-75.60437"},{"id":"8eddcba1-7609-4c62-97c9-e07d01099412","country":"US","name":"Brookside","lat":"39.66706","lng":"-75.72688"},{"id":"7fabf3b2-fed8-43b5-967a-3436d2e9ab3e","country":"US","name":"Camden","lat":"39.11345","lng":"-75.54187"},{"id":"d570e30a-3688-437f-b004-11afde55fc20","country":"US","name":"Cheswold","lat":"39.21928","lng":"-75.58576"},{"id":"f5d22e31-eeeb-4dad-9ac2-c9a810962941","country":"US","name":"Claymont","lat":"39.80067","lng":"-75.45964"},{"id":"694f03b5-1c68-4f41-8c05-63a5bb7fbc3e","country":"US","name":"Clayton","lat":"39.29067","lng":"-75.63437"},{"id":"e48695ca-0ad5-40d1-9968-fbcddfe7d6f2","country":"US","name":"Delaware City","lat":"39.57789","lng":"-75.58881"},{"id":"8a9c387f-8668-4521-9a6a-20cdf4261721","country":"US","name":"Delmar","lat":"38.45651","lng":"-75.57715"},{"id":"2aa03f42-6260-41f4-bf1a-cf6a0690e856","country":"US","name":"Dover","lat":"39.15817","lng":"-75.52437"},{"id":"f050c9e5-60e2-4dcb-bace-430b7d8594c9","country":"US","name":"Edgemoor","lat":"39.75011","lng":"-75.49964"},{"id":"81fd7f89-0724-41a6-9cdb-cf2b2df0dce6","country":"US","name":"Elsmere","lat":"39.73928","lng":"-75.59798"},{"id":"32bce331-2c19-418d-a3e2-b34ce95f373b","country":"US","name":"Felton","lat":"39.00845","lng":"-75.57798"},{"id":"a076c758-39cc-477f-93b9-5b05464f4838","country":"US","name":"Georgetown","lat":"38.69011","lng":"-75.38547"},{"id":"4330eb4b-00d5-42c9-b055-e2a6a32f4de3","country":"US","name":"Glasgow","lat":"39.60483","lng":"-75.74521"},{"id":"6192d5d9-c267-45c5-a020-8634404a4733","country":"US","name":"Greenville","lat":"39.779","lng":"-75.59826"},{"id":"e3624127-3cfd-4d44-84ff-86d30dd6f5cd","country":"US","name":"Greenwood","lat":"38.80706","lng":"-75.59132"},{"id":"22af51ad-f2c1-4b9d-ba54-ac106c1f2be7","country":"US","name":"Harrington","lat":"38.92372","lng":"-75.5777"},{"id":"79ff8b49-3fcd-4cb2-94c1-74b55607273e","country":"US","name":"Highland Acres","lat":"39.12095","lng":"-75.52187"},{"id":"8d113cb7-9783-46e3-bd4a-609f0513df60","country":"US","name":"Hockessin","lat":"39.78761","lng":"-75.6966"},{"id":"e2099e60-202b-4138-acd0-d0532f976a30","country":"US","name":"Kent Acres","lat":"39.13178","lng":"-75.52492"},{"id":"2dfc6317-0964-4ebe-9419-9a5e037800a1","country":"US","name":"Laurel","lat":"38.5565","lng":"-75.57131"},{"id":"1c7cc35f-082d-45d5-b37b-833238ecfeca","country":"US","name":"Lewes","lat":"38.77456","lng":"-75.13935"},{"id":"18ba932d-b29a-434a-b67e-431698888136","country":"US","name":"Long Neck","lat":"38.62011","lng":"-75.15074"},{"id":"986264bb-63a7-4cb0-b036-649ee43d631a","country":"US","name":"Middletown","lat":"39.44956","lng":"-75.71632"},{"id":"202810d3-4219-4628-8171-cbde950bb090","country":"US","name":"Milford","lat":"38.91261","lng":"-75.42797"},{"id":"01f6e818-4142-42c4-8b79-178691d48d5d","country":"US","name":"Millsboro","lat":"38.5915","lng":"-75.2913"},{"id":"bb2a4bdf-6ae0-4b5c-b948-b726e38cde2d","country":"US","name":"Milton","lat":"38.77761","lng":"-75.30991"},{"id":"275aaf2d-6acc-4a03-9fc8-72488b48fdfe","country":"US","name":"New Castle","lat":"39.66206","lng":"-75.56631"},{"id":"be0e5b49-1a2f-4ce4-8bcd-60dd9d9f4a4a","country":"US","name":"Newark","lat":"39.68372","lng":"-75.74966"},{"id":"e5992a3a-86b2-4c62-a289-1aa45e5e8cee","country":"US","name":"Newport","lat":"39.71372","lng":"-75.60937"},{"id":"ad546628-c176-48bf-949b-5799eae38e4e","country":"US","name":"North Star","lat":"39.76122","lng":"-75.7191"},{"id":"5ec8f53d-bba6-497a-a5f8-54607d8616a8","country":"US","name":"Pike Creek","lat":"39.73095","lng":"-75.7041"},{"id":"2ceebfe8-d76b-4148-8189-dc7187164e06","country":"US","name":"Pike Creek Valley","lat":"39.73622","lng":"-75.69827"},{"id":"e89ab387-f5a1-44a2-ac8c-0cf8c1cec0c0","country":"US","name":"Rehoboth Beach","lat":"38.72095","lng":"-75.07601"},{"id":"7aadefa0-ff68-4081-a72b-7548f27179e0","country":"US","name":"Riverview","lat":"39.0265","lng":"-75.51076"},{"id":"474bc679-0ba0-4196-b4cf-76eee2f5918c","country":"US","name":"Rodney Village","lat":"39.13206","lng":"-75.53242"},{"id":"83246997-4aff-4aeb-abc0-8f4cb76d1b64","country":"US","name":"Seaford","lat":"38.64123","lng":"-75.61104"},{"id":"c5b35ca5-8c24-42c8-9a00-0062ad5a6543","country":"US","name":"Selbyville","lat":"38.46039","lng":"-75.22074"},{"id":"085ca52b-68db-4fce-b798-dce9b5e95032","country":"US","name":"Smyrna","lat":"39.29983","lng":"-75.60465"},{"id":"6c9d3488-8bb1-4cdd-bf79-46124d420cfc","country":"US","name":"Townsend","lat":"39.39511","lng":"-75.6916"},{"id":"6de1d458-4574-42dc-ad08-5f4e18fb8929","country":"US","name":"Wilmington","lat":"39.74595","lng":"-75.54659"},{"id":"73067cd0-215b-4d8d-b335-74559d3db1d7","country":"US","name":"Wilmington Manor","lat":"39.68678","lng":"-75.58437"},{"id":"c2f89d66-b672-4e5f-a403-30ca08eb259d","country":"US","name":"Wyoming","lat":"39.11817","lng":"-75.55881"},{"id":"218c8096-7456-4d3d-ad37-6167fdcbe532","country":"US","name":"Alachua","lat":"29.75163","lng":"-82.42483"},{"id":"7eef7992-2bd0-46a0-a1f1-7be4491d9c90","country":"US","name":"Allapattah","lat":"25.81454","lng":"-80.22394"},{"id":"1b5d5765-75ae-4d75-9ae5-c140c5649c6a","country":"US","name":"Altamonte Springs","lat":"28.66111","lng":"-81.36562"},{"id":"3c94f0ef-076d-4037-ae5a-89c47c324a64","country":"US","name":"Alturas","lat":"27.87169","lng":"-81.71508"},{"id":"579f2aa2-b7ce-4192-82ac-a0f7893e42a9","country":"US","name":"Alva","lat":"26.71562","lng":"-81.61008"},{"id":"375b9491-3530-4d2d-a4b8-3729414d7a04","country":"US","name":"Andover","lat":"25.96843","lng":"-80.21283"},{"id":"798f967c-b029-4bdb-b318-6a26e10ba20e","country":"US","name":"Anna Maria","lat":"27.53115","lng":"-82.73343"},{"id":"365ce3f7-3d10-4f39-84bc-b1b2f386a52f","country":"US","name":"Apalachicola","lat":"29.726","lng":"-84.9856"},{"id":"de2c0fbd-7820-4e66-9aa3-1bbf4b2c9fcd","country":"US","name":"Apollo Beach","lat":"27.77308","lng":"-82.40759"},{"id":"068443c9-c77b-4e29-b10e-38d64e8f3d1f","country":"US","name":"Apopka","lat":"28.67617","lng":"-81.51186"},{"id":"dc6ce3d0-ef85-474a-aa57-a621b9f4387e","country":"US","name":"Arcadia","lat":"27.21588","lng":"-81.85842"},{"id":"97ec234f-572e-4aae-a903-5e6375f8e13f","country":"US","name":"Archer","lat":"29.52997","lng":"-82.519"},{"id":"053cdad6-ddd5-44ee-a0b4-506fa3c38371","country":"US","name":"Asbury Lake","lat":"30.04913","lng":"-81.82149"},{"id":"51727ca2-243f-4408-b4d5-ca7eb1b91bdb","country":"US","name":"Astatula","lat":"28.70972","lng":"-81.73285"},{"id":"3b97584e-527f-4b93-86a6-33416caa4021","country":"US","name":"Astor","lat":"29.16248","lng":"-81.52535"},{"id":"e50b34bd-62fc-4cf6-9587-b26881ebd8f1","country":"US","name":"Atlantic Beach","lat":"30.33441","lng":"-81.3987"},{"id":"85f6d3d3-c340-4ce5-8beb-ec1445eb531e","country":"US","name":"Atlantis","lat":"26.5909","lng":"-80.10088"},{"id":"dc4e22bd-1335-4310-af18-3111d4b31268","country":"US","name":"Auburndale","lat":"28.0653","lng":"-81.78869"},{"id":"40b371e2-6b1b-4a25-977c-2a8e90a5dbdf","country":"US","name":"Aventura","lat":"25.95648","lng":"-80.13921"},{"id":"0fd23fb8-b361-43be-8608-397cc97fc8dd","country":"US","name":"Avon Park","lat":"27.59587","lng":"-81.50619"},{"id":"ee8d03fb-a25d-438a-82fc-422ac99defd7","country":"US","name":"Azalea Park","lat":"28.54111","lng":"-81.30062"},{"id":"5b426d66-88be-4225-be7f-7a4800a24b97","country":"US","name":"Babson Park","lat":"27.83197","lng":"-81.5223"},{"id":"8013f88b-7d83-46cf-8c90-11f6c825f8b5","country":"US","name":"Bagdad","lat":"30.5988","lng":"-87.03223"},{"id":"ba8f8f33-2829-4393-bb13-0aded9633a68","country":"US","name":"Bal Harbour","lat":"25.89176","lng":"-80.12699"},{"id":"3301933f-5d8c-4847-b912-766f17c06890","country":"US","name":"Baldwin","lat":"30.30274","lng":"-81.97539"},{"id":"f9268e07-528f-4251-81e4-6aaad4e8367c","country":"US","name":"Balm","lat":"27.75947","lng":"-82.2612"},{"id":"35186ff4-365b-44e0-a849-95bbc8e08c79","country":"US","name":"Bartow","lat":"27.89641","lng":"-81.84314"},{"id":"4a778cfb-a771-4e76-bccc-83be2ddf6a6c","country":"US","name":"Bay Harbor Islands","lat":"25.88759","lng":"-80.13116"},{"id":"ce186faf-095b-472c-98ed-6ac1ec9c63f7","country":"US","name":"Bay Hill","lat":"28.46806","lng":"-81.51618"},{"id":"a0b19f6a-7400-4cb9-b88d-72931abe42ee","country":"US","name":"Bay Pines","lat":"27.81419","lng":"-82.77816"},{"id":"9ad52638-1f13-45cc-83f5-5ca14fe45f92","country":"US","name":"Bayonet Point","lat":"28.32667","lng":"-82.68343"},{"id":"1abbe5ac-632b-4d3d-b2a0-0ebbb04752f4","country":"US","name":"Bayshore Gardens","lat":"27.42532","lng":"-82.59038"},{"id":"e63e3dfe-5239-4dab-9ec2-d18ddd3fb7d6","country":"US","name":"Beacon Square","lat":"28.20862","lng":"-82.75538"},{"id":"fd97a087-85ff-4ff7-9323-24ebf851d886","country":"US","name":"Bee Ridge","lat":"27.28394","lng":"-82.48065"},{"id":"23383e8f-91fa-49dc-a419-3c13b90891ee","country":"US","name":"Belle Glade","lat":"26.68451","lng":"-80.66756"},{"id":"7c7e91ba-10f3-4a43-acda-64e1580fffcc","country":"US","name":"Belle Glade Camp","lat":"26.65757","lng":"-80.68284"},{"id":"c6139b5f-c8fe-4aca-a4d6-10b48d82f85a","country":"US","name":"Belle Isle","lat":"28.45834","lng":"-81.35924"},{"id":"a0dcad05-1cea-450c-8802-c7891b6c48a3","country":"US","name":"Belleair","lat":"27.93585","lng":"-82.80621"},{"id":"1da6d8c3-6e1e-4ec7-9448-2477f9fcca4f","country":"US","name":"Belleair Beach","lat":"27.92308","lng":"-82.84316"},{"id":"74cd03dd-d435-4bf1-ae9c-de8c9fdeb4df","country":"US","name":"Belleair Bluffs","lat":"27.92141","lng":"-82.81705"},{"id":"4c1b7c6e-8379-4b90-82d4-1cdb91bad73c","country":"US","name":"Belleview","lat":"29.05526","lng":"-82.06231"},{"id":"76a74425-3c42-4acf-ab16-787b689a95ec","country":"US","name":"Bellview","lat":"30.46159","lng":"-87.31497"},{"id":"e75429e2-40c0-4498-8e46-25bf422f7b73","country":"US","name":"Beverly Hills","lat":"28.91692","lng":"-82.45815"},{"id":"00907391-285b-4ca6-9d5d-37084bf8da57","country":"US","name":"Big Coppitt Key","lat":"24.59653","lng":"-81.66009"},{"id":"03bd8866-23ed-4662-8a7a-7c7ab34f20fd","country":"US","name":"Big Pine Key","lat":"24.66987","lng":"-81.35397"},{"id":"c8901573-d484-4621-bbfb-316e3f1eeff4","country":"US","name":"Biscayne Park","lat":"25.8826","lng":"-80.1806"},{"id":"619a5f70-802c-49b8-a616-25cb0d7556c9","country":"US","name":"Bithlo","lat":"28.55472","lng":"-81.10645"},{"id":"959c2d02-3d45-4196-85fa-b690d9297850","country":"US","name":"Black Diamond","lat":"28.91248","lng":"-82.48593"},{"id":"56300b9c-4d0f-4de3-8fea-99edc86c3652","country":"US","name":"Bloomingdale","lat":"27.89364","lng":"-82.24037"},{"id":"562d26a9-8d53-45c3-ae84-6a8dd2f56032","country":"US","name":"Blountstown","lat":"30.44379","lng":"-85.04744"},{"id":"d074a5d3-dc0c-4df7-95cd-4bced5eefb99","country":"US","name":"Boca Del Mar","lat":"26.34508","lng":"-80.14671"},{"id":"ff3da0b5-08c5-4a8a-87d7-1c31449f5449","country":"US","name":"Boca Pointe","lat":"26.33313","lng":"-80.15949"},{"id":"6545251b-0b6d-4bb4-8137-130356b3db39","country":"US","name":"Boca Raton","lat":"26.35869","lng":"-80.0831"},{"id":"d0291975-d860-4d95-b1b3-5a226947d879","country":"US","name":"Bokeelia","lat":"26.70563","lng":"-82.15898"},{"id":"86c399f4-be02-40e4-a714-5fb30015039b","country":"US","name":"Bonifay","lat":"30.79186","lng":"-85.67965"},{"id":"ed657912-6020-49fc-83bb-3ad380a28578","country":"US","name":"Bonita Springs","lat":"26.33981","lng":"-81.7787"},{"id":"da870a98-bfa6-4930-8306-62f18e67c093","country":"US","name":"Bowling Green","lat":"27.63837","lng":"-81.82397"},{"id":"1f454873-6186-4004-8f8a-a55a920bc8fa","country":"US","name":"Boyette","lat":"27.81753","lng":"-82.22259"},{"id":"186c6167-4562-4e8c-856a-41d396b4cfde","country":"US","name":"Boynton Beach","lat":"26.52535","lng":"-80.06643"},{"id":"8469bb50-6143-4980-be5a-403876f6e787","country":"US","name":"Bradenton","lat":"27.49893","lng":"-82.57482"},{"id":"b536bac2-18ef-4e79-b7b6-4e2bf3acceb4","country":"US","name":"Bradenton Beach","lat":"27.46698","lng":"-82.70399"},{"id":"9c092f48-f7b4-492c-bf91-81492b1518c2","country":"US","name":"Brandon","lat":"27.9378","lng":"-82.28592"},{"id":"68e2d257-11db-4c8f-ba00-d17eb11f2f50","country":"US","name":"Brent","lat":"30.46881","lng":"-87.23608"},{"id":"1f54f473-1196-4a87-9afc-69c3fee45c10","country":"US","name":"Bristol","lat":"30.43247","lng":"-84.97702"},{"id":"f1106e34-c50b-4863-8845-82975a2d882b","country":"US","name":"Broadview Park","lat":"26.09953","lng":"-80.20866"},{"id":"b573985d-f3de-4fe9-bdc0-cd33e7242f10","country":"US","name":"Bronson","lat":"29.44774","lng":"-82.64233"},{"id":"9a01a287-6bdd-4e1a-8966-e0ae88b2a8a4","country":"US","name":"Brookridge","lat":"28.5511","lng":"-82.49204"},{"id":"20ad9cf0-d7da-4406-a17f-cad84fdb1fa8","country":"US","name":"Brooksville","lat":"28.55554","lng":"-82.38991"},{"id":"545ba0ec-c6e8-46f6-b3d1-c576d040bd1d","country":"US","name":"Broward Estates","lat":"26.12564","lng":"-80.19338"},{"id":"d5a4aec3-26de-4efa-b67e-fa8c402aa932","country":"US","name":"Brownsville","lat":"25.82176","lng":"-80.24116"},{"id":"c0b1bc48-97fc-40a0-958d-d50c30ec902b","country":"US","name":"Buckhead Ridge","lat":"27.13033","lng":"-80.89367"},{"id":"9cffac26-f92c-49b4-9aa4-3f42b5152380","country":"US","name":"Buckingham","lat":"26.67507","lng":"-81.73203"},{"id":"bfbbb52c-5d43-47cb-a10f-ea1b5c2f4faa","country":"US","name":"Buenaventura Lakes","lat":"28.33584","lng":"-81.35313"},{"id":"e4ab154c-5db1-40a5-97cc-7e841c195043","country":"US","name":"Bunche Park","lat":"25.92065","lng":"-80.23699"},{"id":"8a6d712a-2009-4686-8a69-01870c9998ca","country":"US","name":"Bunnell","lat":"29.46609","lng":"-81.25784"},{"id":"336df514-704b-4d9a-85b6-3661aa60ba31","country":"US","name":"Burnt Store Marina","lat":"26.76507","lng":"-82.05092"},{"id":"a475c9f9-2ca3-4d06-b300-c0d910def23a","country":"US","name":"Bushnell","lat":"28.66499","lng":"-82.11286"},{"id":"fcad3c47-ef8b-437b-8895-4349edd81979","country":"US","name":"Butler Beach","lat":"29.7983","lng":"-81.26701"},{"id":"6fc26e4e-1953-4694-a76d-55273f840cc4","country":"US","name":"Callahan","lat":"30.56218","lng":"-81.83066"},{"id":"df8ab18a-c23a-4090-befe-164a1fdfc739","country":"US","name":"Callaway","lat":"30.15298","lng":"-85.56993"},{"id":"c34d67da-d32b-4173-bf68-1a80d74149e6","country":"US","name":"Campbell","lat":"28.2589","lng":"-81.45646"},{"id":"59b6e060-f68b-4134-bc76-8dffd5c75d89","country":"US","name":"Cantonment","lat":"30.60853","lng":"-87.33998"},{"id":"b09ae345-3cb4-4ad4-9853-669d9a634636","country":"US","name":"Cape Canaveral","lat":"28.40584","lng":"-80.60477"},{"id":"52cc7010-a2aa-4264-9f51-ddcc59ee4618","country":"US","name":"Cape Coral","lat":"26.56285","lng":"-81.94953"},{"id":"dbb287c1-927f-44f6-b2b7-0119a5e0e54e","country":"US","name":"Carol City","lat":"25.94065","lng":"-80.2456"},{"id":"22ce61d4-5964-462d-8b6a-ab86ff583e51","country":"US","name":"Carrabelle","lat":"29.85326","lng":"-84.66435"},{"id":"91337bad-5fed-430e-a250-906ad9eb96d0","country":"US","name":"Carrollwood","lat":"28.05002","lng":"-82.49287"},{"id":"f0dde216-436c-4138-8f4d-d450da61605a","country":"US","name":"Carrollwood Village","lat":"28.06752","lng":"-82.52093"},{"id":"de0dd07a-e5ad-429b-9186-2e76bd7fcd2e","country":"US","name":"Carver Ranches","lat":"25.98842","lng":"-80.19227"},{"id":"de1be0a3-1b21-4ec0-ba1b-9ff109d9cfd9","country":"US","name":"Casselberry","lat":"28.67778","lng":"-81.32785"},{"id":"40c91c62-815d-40e6-9a9d-edc0838777d3","country":"US","name":"Cedar Grove","lat":"30.17103","lng":"-85.6252"},{"id":"0a957c8c-6a9b-4866-b23f-8aaf930d6767","country":"US","name":"Celebration","lat":"28.32529","lng":"-81.53313"},{"id":"919a0752-34bf-46d6-93ba-3cb9a446252a","country":"US","name":"Center Hill","lat":"28.64999","lng":"-81.99258"},{"id":"78fbac5d-bbf2-4ae6-a7cf-fd072adc1892","country":"US","name":"Century","lat":"30.97324","lng":"-87.26386"},{"id":"f752a8a0-06a4-4684-a0d5-dd758f8e6e6e","country":"US","name":"Charlotte Harbor","lat":"26.95839","lng":"-82.06703"},{"id":"fa6cc4c7-c8f8-4529-99ca-88b14567b7fb","country":"US","name":"Charlotte Park","lat":"26.91006","lng":"-82.05398"},{"id":"e95ec328-f4d7-4c30-8392-68f23dbdbf2d","country":"US","name":"Chattahoochee","lat":"30.70546","lng":"-84.84574"},{"id":"0abdb314-b628-46db-b020-b70c2fab44e6","country":"US","name":"Cheval","lat":"28.14862","lng":"-82.51454"},{"id":"eb261708-6243-45bb-8270-4ada13049da6","country":"US","name":"Chiefland","lat":"29.47496","lng":"-82.85984"},{"id":"3441ad35-122e-425d-a5b2-7ddf1c05eed0","country":"US","name":"Chipley","lat":"30.78186","lng":"-85.53854"},{"id":"212379b4-5ee5-4a28-87ad-76b69a8108b0","country":"US","name":"Christmas","lat":"28.53639","lng":"-81.01756"},{"id":"f7ea00b5-4e07-4da7-9e0c-92fedcfeedc1","country":"US","name":"Chuluota","lat":"28.64194","lng":"-81.1234"},{"id":"858f8b7a-527e-4944-8c04-46617bb59faf","country":"US","name":"Citra","lat":"29.41192","lng":"-82.10982"},{"id":"bf51ee4d-5ad7-443d-ae92-60f0018a558b","country":"US","name":"Citrus Hills","lat":"28.88831","lng":"-82.4326"},{"id":"cbcf96e6-58a8-4ffc-901c-ef8d1c53ce67","country":"US","name":"Citrus Park","lat":"28.07835","lng":"-82.56982"},{"id":"5652bab7-a1f2-4882-97d8-f4285a91dd2a","country":"US","name":"Citrus Ridge","lat":"28.33385","lng":"-81.64232"},{"id":"b50a5d9f-b0da-4a6a-a6bc-3c0fb82393ea","country":"US","name":"Citrus Springs","lat":"28.99748","lng":"-82.47065"},{"id":"0e54b9b0-8d8b-4102-a47a-610f06aac7a5","country":"US","name":"Clarcona","lat":"28.61278","lng":"-81.49868"},{"id":"315f5b13-a317-4f93-9a2c-e4247c7ed0bb","country":"US","name":"Clearwater","lat":"27.96585","lng":"-82.8001"},{"id":"1ffa34a0-b624-4142-8fc1-0475ca2ed54a","country":"US","name":"Clermont","lat":"28.54944","lng":"-81.77285"},{"id":"a7211c7d-2837-43dd-926d-d368d4d52fa3","country":"US","name":"Clewiston","lat":"26.75423","lng":"-80.93368"},{"id":"90bd08b9-33c5-4d6c-9076-7d220f66ca75","country":"US","name":"Cleveland","lat":"26.96173","lng":"-81.98398"},{"id":"5c581e7f-a048-4154-a48d-bd2b6c6cb16b","country":"US","name":"Cocoa","lat":"28.38612","lng":"-80.742"},{"id":"b227267e-6586-4c94-b400-c6b1a2a7cf2e","country":"US","name":"Cocoa Beach","lat":"28.32055","lng":"-80.60922"},{"id":"47e486e5-11c2-4637-a8a3-e3e4a1d4b5c1","country":"US","name":"Coconut Creek","lat":"26.25175","lng":"-80.17894"},{"id":"9f989d65-6fd3-4b5f-8b66-b7f55a8a719e","country":"US","name":"Coconut Grove","lat":"25.7126","lng":"-80.25699"},{"id":"df3a022a-66e9-4a52-9d9a-33a6f2ea0831","country":"US","name":"Combee Settlement","lat":"28.05835","lng":"-81.90536"},{"id":"f8671f2b-690e-4b6a-a451-1cb00edca59d","country":"US","name":"Conway","lat":"28.50278","lng":"-81.33062"},{"id":"59aeed07-5867-4c2c-8c07-c866ebb4da5b","country":"US","name":"Cooper City","lat":"26.05731","lng":"-80.27172"},{"id":"b9602d56-ac54-4fa7-bf5e-32d65e0fae50","country":"US","name":"Coral Gables","lat":"25.72149","lng":"-80.26838"},{"id":"42a66a71-addc-4e44-93fc-0cb4174165d7","country":"US","name":"Coral Springs","lat":"26.27119","lng":"-80.2706"},{"id":"c4cebf8e-737d-495f-b1a3-ce724dfcee37","country":"US","name":"Coral Terrace","lat":"25.74593","lng":"-80.3045"},{"id":"0aae51c1-6c53-4c35-9ac0-3f46a7936453","country":"US","name":"Cortez","lat":"27.46921","lng":"-82.68621"},{"id":"f289b31e-bb67-4d93-a1b2-b59bb5e1cb60","country":"US","name":"Country Walk","lat":"25.63399","lng":"-80.43228"},{"id":"02d7f793-d938-4af5-9c3d-d27edc5e124b","country":"US","name":"Country Club","lat":"25.94815","lng":"-80.317"},{"id":"0149bc6c-e100-4df5-afa4-2c379f7176b0","country":"US","name":"Crawfordville","lat":"30.17604","lng":"-84.37518"},{"id":"d3484f61-6466-4630-a8ff-64ba05917cc4","country":"US","name":"Crescent City","lat":"29.43025","lng":"-81.51063"},{"id":"c8413193-e3b7-44f5-ad18-1424fdcbc897","country":"US","name":"Crestview","lat":"30.76213","lng":"-86.57051"},{"id":"5c2528ce-984a-4d25-bb02-293f807a2b37","country":"US","name":"Crooked Lake Park","lat":"27.82919","lng":"-81.58397"},{"id":"82eba0cf-be35-4ce0-8606-61eef2e677bc","country":"US","name":"Cross City","lat":"29.63465","lng":"-83.12694"},{"id":"bc02fb01-5be6-43e9-b396-121c29caa255","country":"US","name":"Crystal Lake","lat":"28.03558","lng":"-81.90841"},{"id":"eed2b89d-2367-40e3-9823-c294dde284fd","country":"US","name":"Crystal River","lat":"28.90248","lng":"-82.5926"},{"id":"5a13c417-df5e-4f4d-bc20-fe5fb51c9d96","country":"US","name":"Crystal Springs","lat":"28.1814","lng":"-82.15758"},{"id":"12a590fb-d3f3-4de3-bdc6-0db05e51b7ae","country":"US","name":"Cudjoe Key","lat":"24.67153","lng":"-81.49842"},{"id":"b18d048b-fda1-4832-b934-412f32637750","country":"US","name":"Cutler","lat":"25.6151","lng":"-80.31061"},{"id":"7e22afe5-6ddb-41cb-b2f7-f7d80e5bb409","country":"US","name":"Cutler Ridge","lat":"25.58066","lng":"-80.34672"},{"id":"f7bf7378-cce1-4c39-be87-acf513b60c9c","country":"US","name":"Cypress Gardens","lat":"27.99391","lng":"-81.69008"},{"id":"c58f01db-7f1e-4b18-b020-309147b59ff9","country":"US","name":"Cypress Lake","lat":"26.53813","lng":"-81.89925"},{"id":"b0ce8350-f418-47e7-97e2-f6250147d437","country":"US","name":"Cypress Quarters","lat":"27.25199","lng":"-80.81395"},{"id":"0462981c-5e6e-4e18-b0a9-e6c00c56cac2","country":"US","name":"Dade City","lat":"28.36472","lng":"-82.19592"},{"id":"b01ee005-24eb-424a-8b1c-dc4e1d22f0f1","country":"US","name":"Dania Beach","lat":"26.05231","lng":"-80.14393"},{"id":"eb431279-44e9-4204-97f4-36d84b0b4a55","country":"US","name":"Davenport","lat":"28.1614","lng":"-81.60174"},{"id":"6ad130fe-6427-4a7a-99f5-3e803a64e8d8","country":"US","name":"Davie","lat":"26.06287","lng":"-80.2331"},{"id":"1e209753-7492-476f-88f7-3fccfc4e3321","country":"US","name":"Daytona Beach","lat":"29.21081","lng":"-81.02283"},{"id":"519951cf-9cbd-4903-a931-3f1313dd2a21","country":"US","name":"Daytona Beach Shores","lat":"29.17609","lng":"-80.98283"},{"id":"45e28554-7f00-4763-9b2d-d10d0f1b867a","country":"US","name":"DeFuniak Springs","lat":"30.72102","lng":"-86.11522"},{"id":"d6a5d376-c242-42ab-a571-32a00294fd00","country":"US","name":"DeLand","lat":"29.02832","lng":"-81.30312"},{"id":"91efe8e0-c1f9-47c3-ac2e-8009d726cd6d","country":"US","name":"De Leon Springs","lat":"29.11989","lng":"-81.35286"},{"id":"8a8fea13-bf3c-4f82-af1d-58382fb6fd17","country":"US","name":"DeBary","lat":"28.88305","lng":"-81.30868"},{"id":"a49dc5de-7e0a-4072-a57b-cf70bad8afe5","country":"US","name":"Deerfield Beach","lat":"26.31841","lng":"-80.09977"},{"id":"91d46f51-28a3-4053-bca3-8817002688fe","country":"US","name":"Delray Beach","lat":"26.46146","lng":"-80.07282"},{"id":"f0d91ddb-352d-4a70-a229-70cf62192b8c","country":"US","name":"Deltona","lat":"28.90054","lng":"-81.26367"},{"id":"de3eb18d-510d-4c89-bcfb-af2059ed6814","country":"US","name":"Desoto Lakes","lat":"27.37143","lng":"-82.48982"},{"id":"fe0e8501-868c-4730-95d9-8b1eb1348fcb","country":"US","name":"Destin","lat":"30.39353","lng":"-86.49578"},{"id":"74479344-0627-4d46-9828-89385c2185f4","country":"US","name":"Doctor Phillips","lat":"28.44945","lng":"-81.49229"},{"id":"1387f2b6-686f-4448-8b77-6281de367eef","country":"US","name":"Doral","lat":"25.81954","lng":"-80.35533"},{"id":"1ebab689-d969-4d68-a1fb-65da304cb768","country":"US","name":"Dover","lat":"27.99419","lng":"-82.21953"},{"id":"ed4f1c60-fdda-45ac-8aad-1b426587440b","country":"US","name":"Dundee","lat":"28.02252","lng":"-81.61924"},{"id":"c1fb4e32-2f69-4978-bd14-045aa7228603","country":"US","name":"Dunedin","lat":"28.0199","lng":"-82.77323"},{"id":"1854c2b6-48a5-47af-90dd-c070446fb9b2","country":"US","name":"Dunnellon","lat":"29.04914","lng":"-82.46093"},{"id":"6121d726-95dc-4f70-8f72-f258ba2d352f","country":"US","name":"Eagle Lake","lat":"27.97836","lng":"-81.75647"},{"id":"84cb6a5c-80a0-456d-be37-8356234aa0c3","country":"US","name":"East Lake","lat":"28.11085","lng":"-82.69482"},{"id":"9907abc7-8c50-419d-9cea-334a11099826","country":"US","name":"East Milton","lat":"30.61519","lng":"-87.02163"},{"id":"8af26c46-99ed-4807-8a4a-29a2e9a35c78","country":"US","name":"East Palatka","lat":"29.6583","lng":"-81.59841"},{"id":"a7d8f7bc-5bb1-473c-987c-3b001a6ac7e7","country":"US","name":"East Pensacola Heights","lat":"30.42881","lng":"-87.17997"},{"id":"58a62f81-3e08-4def-9361-047c1c7febb9","country":"US","name":"East Perrine","lat":"25.60872","lng":"-80.33894"},{"id":"ec599468-8a8e-4ffa-9cb6-aefccf40ae19","country":"US","name":"Eastpoint","lat":"29.7366","lng":"-84.87852"},{"id":"3839d718-b67d-40d5-9874-47ac16abab25","country":"US","name":"Eatonville","lat":"28.61472","lng":"-81.38062"},{"id":"acace189-7b62-47ad-94b6-c53508318568","country":"US","name":"Edgewater","lat":"28.98888","lng":"-80.90228"},{"id":"ad4d5aaa-d3dd-46bd-8bf6-6077c8878df5","country":"US","name":"Edgewood","lat":"28.48612","lng":"-81.37229"},{"id":"446dc760-2042-4563-997e-64fe4a35b0cf","country":"US","name":"Eglin Village","lat":"30.46298","lng":"-86.5394"},{"id":"48229fbc-b5a6-4cf8-a28f-6c28a013c907","country":"US","name":"Egypt Lake-Leto","lat":"28.01769","lng":"-82.50619"},{"id":"6035c98d-d466-4580-97d3-cdcbb6744972","country":"US","name":"El Portal","lat":"25.85537","lng":"-80.1931"},{"id":"8c5456d2-882b-463c-8039-4e52158f68fa","country":"US","name":"Elfers","lat":"28.21668","lng":"-82.72232"},{"id":"f6decadc-965b-4973-afd1-7031f2d60e84","country":"US","name":"Ellenton","lat":"27.52171","lng":"-82.5276"},{"id":"d82ef14a-a903-4f9d-916c-9b6b39afd7ed","country":"US","name":"Englewood","lat":"26.96201","lng":"-82.3526"},{"id":"7d5e17c4-ea42-4f7b-9b4e-6243a43830b2","country":"US","name":"Ensley","lat":"30.51881","lng":"-87.27275"},{"id":"8656dee8-b0c0-4a5f-92a0-d77ca0eb7e27","country":"US","name":"Estero","lat":"26.43814","lng":"-81.80675"},{"id":"555def0a-631b-446f-ae8d-1f0e7549285b","country":"US","name":"Eustis","lat":"28.85277","lng":"-81.68535"},{"id":"9f1affc1-4fa6-4b4f-b1b7-1d519e1e8631","country":"US","name":"Fairview Shores","lat":"28.59111","lng":"-81.39424"},{"id":"10b0bf95-4df7-4dcf-9650-73726d6ec0c5","country":"US","name":"Feather Sound","lat":"27.90079","lng":"-82.67349"},{"id":"89c7400f-4beb-4ee0-8f98-f2f11b72ab77","country":"US","name":"Fellsmere","lat":"27.76781","lng":"-80.60144"},{"id":"327ac228-e9e7-49c7-8359-48cca8f94cb1","country":"US","name":"Fern Park","lat":"28.64916","lng":"-81.35118"},{"id":"c92c326e-df8a-4dd2-b07b-ca143f71a6b2","country":"US","name":"Fernandina Beach","lat":"30.66968","lng":"-81.46259"},{"id":"f03ada9b-d0ac-4466-b7ad-45072336609c","country":"US","name":"Ferry Pass","lat":"30.5102","lng":"-87.21247"},{"id":"ef9648ee-b47b-40b1-a850-d9cfb45ef225","country":"US","name":"Fish Hawk","lat":"27.85058","lng":"-82.21092"},{"id":"dc8222a3-2b44-4855-951e-36cfe9e451cc","country":"US","name":"Five Points","lat":"30.20912","lng":"-82.63735"},{"id":"ebe6c2e4-20c6-4509-9c7d-ae63ec963a5d","country":"US","name":"Flagami","lat":"25.76232","lng":"-80.31616"},{"id":"1d867596-56f3-4530-ab3f-808253dd677d","country":"US","name":"Flagler Beach","lat":"29.47498","lng":"-81.127"},{"id":"4fc60a3c-cef8-4acd-816f-11bfd6204d68","country":"US","name":"Fleming Island","lat":"30.0933","lng":"-81.71898"},{"id":"5ec4678a-664b-4523-8159-f2f50656562a","country":"US","name":"Floral City","lat":"28.74999","lng":"-82.29676"},{"id":"ca1c3273-5a4a-4a2e-8e8a-0bea679720f2","country":"US","name":"Florida City","lat":"25.44789","lng":"-80.47922"},{"id":"d6faa0a7-6f15-4da6-9b6c-2801fb0db4d0","country":"US","name":"Florida Ridge","lat":"27.58031","lng":"-80.38672"},{"id":"04cc11ce-abcc-46a0-a4d9-155f8a899fb5","country":"US","name":"Forest City","lat":"28.66678","lng":"-81.44334"},{"id":"5484c158-59cd-4fca-b98f-d54aa5d107df","country":"US","name":"Fort Lauderdale","lat":"26.12231","lng":"-80.14338"},{"id":"3cb35977-3ba5-4821-ac31-e5fee98fdeb0","country":"US","name":"Fort Meade","lat":"27.75225","lng":"-81.80175"},{"id":"c0149228-5d81-4954-9183-cd80521017fa","country":"US","name":"Fort Myers","lat":"26.62168","lng":"-81.84059"},{"id":"8ee44695-35ff-42b5-88af-4217ba522021","country":"US","name":"Fort Myers Beach","lat":"26.45271","lng":"-81.95011"},{"id":"e354f6b6-8917-46fb-bc07-5cc365830388","country":"US","name":"Fort Myers Shores","lat":"26.70924","lng":"-81.74592"},{"id":"77e51689-4862-4b00-9e26-5e82e7ae8164","country":"US","name":"Fort Pierce","lat":"27.44671","lng":"-80.32561"},{"id":"ece6274a-11f4-4f6b-9b78-058e90686475","country":"US","name":"Fort Walton Beach","lat":"30.42059","lng":"-86.61707"},{"id":"787c3a20-cedb-4760-8e82-c2ae0fe97534","country":"US","name":"Fountainebleau","lat":"25.77288","lng":"-80.34783"},{"id":"31c9967d-5de6-4df3-8653-2ff5cccd8152","country":"US","name":"Freeport","lat":"30.49825","lng":"-86.13605"},{"id":"7169d053-4d5f-4d29-82ff-fdacdbe7dc2b","country":"US","name":"Frostproof","lat":"27.74586","lng":"-81.53063"},{"id":"56572e60-38dc-4374-a13e-9f45538cc095","country":"US","name":"Fruit Cove","lat":"30.11107","lng":"-81.64176"},{"id":"ef8c23d6-4ed4-4371-9b19-6f9909658ce4","country":"US","name":"Fruitland Park","lat":"28.86138","lng":"-81.90647"},{"id":"444eb151-cfe5-42b1-8159-42b73e1a1cea","country":"US","name":"Fruitville","lat":"27.32977","lng":"-82.4576"},{"id":"d5132bca-8c3a-4e41-afa8-5bae2d514512","country":"US","name":"Fuller Heights","lat":"27.90919","lng":"-81.99814"},{"id":"5698552e-c680-4db7-b143-585d97a6e259","country":"US","name":"Fussels Corner","lat":"28.05419","lng":"-81.86064"},{"id":"e3fcd73e-38e1-4063-8fd6-713c17c5095b","country":"US","name":"Gainesville","lat":"29.65163","lng":"-82.32483"},{"id":"c2c86920-8a10-469f-914d-46e5ac802f91","country":"US","name":"Gandy","lat":"27.8685","lng":"-82.61612"},{"id":"c1a09d3b-5272-47be-aff2-344c0cef38f6","country":"US","name":"Gateway","lat":"26.57757","lng":"-81.75036"},{"id":"00aba1bd-13e1-4f69-bae3-8bfb69a67e50","country":"US","name":"Geneva","lat":"28.73972","lng":"-81.11506"},{"id":"086249b5-f20e-45e5-afe9-847172670b21","country":"US","name":"Gibsonia","lat":"28.11474","lng":"-81.97369"},{"id":"3d2b5123-a000-410e-a0f3-29fff06d9081","country":"US","name":"Gibsonton","lat":"27.85364","lng":"-82.38259"},{"id":"984624dd-99e2-4d05-884f-ac38dbb62c66","country":"US","name":"Gifford","lat":"27.67531","lng":"-80.40922"},{"id":"b01c390d-4a4b-4f5d-8e21-bf0ca4c545ce","country":"US","name":"Gladeview","lat":"25.83926","lng":"-80.2356"},{"id":"27008902-6953-47bc-86f3-2f5b5afdb61a","country":"US","name":"Glencoe","lat":"29.02582","lng":"-80.972"},{"id":"72e4f605-ae02-46ad-9799-da49d0764093","country":"US","name":"Glenvar Heights","lat":"25.7076","lng":"-80.32561"},{"id":"19f8cebd-2806-49dd-922a-d7eb3d5891ca","country":"US","name":"Golden Gate","lat":"26.18787","lng":"-81.69509"},{"id":"30922e88-7cc1-4ca5-98c7-e5838efc63a3","country":"US","name":"Golden Glades","lat":"25.91176","lng":"-80.20033"},{"id":"833a6865-e302-4593-b353-f44e7ca70aa6","country":"US","name":"Goldenrod","lat":"28.61028","lng":"-81.28868"},{"id":"4f0cd891-34e9-4999-aa7c-0c28af7f313b","country":"US","name":"Gonzalez","lat":"30.58158","lng":"-87.29136"},{"id":"8a43ed9d-9ab0-4524-a54a-6c3f2cc61285","country":"US","name":"Gotha","lat":"28.52778","lng":"-81.52313"},{"id":"923bbffe-a733-46b7-ad46-48a5e477997f","country":"US","name":"Goulding","lat":"30.44298","lng":"-87.22247"},{"id":"b1fd314f-ad6b-4f6f-bd9a-f6bceecd162c","country":"US","name":"Goulds","lat":"25.56261","lng":"-80.38228"},{"id":"e4e4cf44-e9d0-4b64-b736-436c68379099","country":"US","name":"Graceville","lat":"30.95685","lng":"-85.5166"},{"id":"2aa03ca8-be7e-446e-b852-ea9bd6d91496","country":"US","name":"Green Cove Springs","lat":"29.99191","lng":"-81.67815"},{"id":"68a6664d-0280-4a4a-b4a3-4d6b94c401b5","country":"US","name":"Greenacres City","lat":"26.62368","lng":"-80.12532"},{"id":"968a9a4a-5c40-4382-9e9d-11dcf5f32b48","country":"US","name":"Gretna","lat":"30.61714","lng":"-84.65991"},{"id":"35a026bf-049e-4b7a-8667-35c90234df82","country":"US","name":"Grove City","lat":"26.91423","lng":"-82.32704"},{"id":"68968477-a5e2-4ced-bf17-f6fffdaaf4d7","country":"US","name":"Groveland","lat":"28.55805","lng":"-81.85119"},{"id":"8637a69c-5f18-4b29-8d83-c6b86ff6c972","country":"US","name":"Gulf Breeze","lat":"30.35714","lng":"-87.16386"},{"id":"88d645f8-f703-4641-9c5d-3263e15e033c","country":"US","name":"Gulf Gate Estates","lat":"27.25173","lng":"-82.51471"},{"id":"271fb255-cf8b-417a-bfc6-e70fcd679539","country":"US","name":"Gulfport","lat":"27.74836","lng":"-82.70343"},{"id":"5f2f2e0d-e0fe-45f5-a2f9-80913a804c4d","country":"US","name":"Haines City","lat":"28.1145","lng":"-81.62009"},{"id":"25380c80-1d3c-4919-8df8-b5c6b570fa61","country":"US","name":"Hallandale Beach","lat":"25.9812","lng":"-80.14838"},{"id":"0c1e93a5-979c-4ec3-8dc7-351466531af0","country":"US","name":"Harbor Bluffs","lat":"27.90947","lng":"-82.8276"},{"id":"9042c8bc-7ab8-4872-964e-75d44fd1ff63","country":"US","name":"Harbour Heights","lat":"26.99089","lng":"-82.00231"},{"id":"525a416c-7ab1-4a9a-af13-a7442cd8fa95","country":"US","name":"Harlem","lat":"26.73757","lng":"-80.9509"},{"id":"db4ecedf-f1fa-4ce4-bcbb-21cac36f2134","country":"US","name":"Harlem Heights","lat":"26.51619","lng":"-81.92787"},{"id":"778d0997-42a9-47d6-8026-689604088b49","country":"US","name":"Havana","lat":"30.62381","lng":"-84.41463"},{"id":"2b764ece-69bb-43ef-ab4a-1375d1e76eae","country":"US","name":"Haverhill","lat":"26.69118","lng":"-80.12004"},{"id":"cfb7e224-adfb-4582-85ee-8f0c132176c2","country":"US","name":"Hawthorne","lat":"29.59191","lng":"-82.08732"},{"id":"a125eeae-53aa-4380-ab65-31ee324060cd","country":"US","name":"Hawthorne","lat":"28.76138","lng":"-81.87091"},{"id":"feca9753-bf3d-4acf-9892-29c0affc2db9","country":"US","name":"Heathrow","lat":"28.76333","lng":"-81.37225"},{"id":"af238cf6-110f-45d8-900f-86c1dfb700a0","country":"US","name":"Hernando","lat":"28.89998","lng":"-82.37454"},{"id":"8d0968a6-a6e0-4d0a-a53f-f35d040b55af","country":"US","name":"Hernando Beach","lat":"28.46944","lng":"-82.65927"},{"id":"180d1253-0a76-4668-9d89-e53840611ff3","country":"US","name":"Hialeah","lat":"25.8576","lng":"-80.27811"},{"id":"3e1f1804-c250-49a7-8121-8f754e9f8ea1","country":"US","name":"Hialeah Gardens","lat":"25.8651","lng":"-80.3245"},{"id":"c957dbdb-592c-4060-99f6-edd1cb8e7c81","country":"US","name":"High Springs","lat":"29.82691","lng":"-82.59678"},{"id":"e29d6771-9df3-48bb-b542-992009a3e935","country":"US","name":"Highland Beach","lat":"26.39952","lng":"-80.0656"},{"id":"3ec1874b-c8f3-4b0a-8dde-c29b83dac60a","country":"US","name":"Highland City","lat":"27.9653","lng":"-81.87786"},{"id":"17ac7e6d-22e0-470a-8bc7-a0f59d392faf","country":"US","name":"Hiland Park","lat":"30.20103","lng":"-85.62687"},{"id":"2be6606f-c26b-4c26-9d7f-0028251ad436","country":"US","name":"Hill 'n Dale","lat":"28.51972","lng":"-82.29926"},{"id":"eba32eeb-afad-4605-9dcc-628efed02418","country":"US","name":"Hilliard","lat":"30.69107","lng":"-81.91733"},{"id":"74f0d7ea-4857-4537-a9ec-b58e05b81717","country":"US","name":"Hillsboro Beach","lat":"26.29397","lng":"-80.07893"},{"id":"3c023cc6-2e94-4b3c-b055-1744c02f0faf","country":"US","name":"Hobe Sound","lat":"27.0595","lng":"-80.13643"},{"id":"6184a5a1-3231-4851-b78b-e9226056ef71","country":"US","name":"Holden Heights","lat":"28.49667","lng":"-81.38785"},{"id":"d6c550d9-5a84-479a-ae13-0deda1c7c908","country":"US","name":"Holiday","lat":"28.18779","lng":"-82.73955"},{"id":"3a5e3893-4deb-420b-b1db-6646f406af7c","country":"US","name":"Holley","lat":"30.44686","lng":"-86.90691"},{"id":"0e494fb1-dc3e-4429-89d2-83cf1331b669","country":"US","name":"Holly Hill","lat":"29.24359","lng":"-81.03756"},{"id":"1b297def-42e1-4070-bbe9-5e022484d679","country":"US","name":"Hollywood","lat":"26.0112","lng":"-80.14949"},{"id":"b1d6cb06-27b5-4997-9e39-76f7fdce9a97","country":"US","name":"Holmes Beach","lat":"27.49532","lng":"-82.71093"},{"id":"d757ef79-7398-44c7-8515-170263378b57","country":"US","name":"Homestead","lat":"25.46872","lng":"-80.47756"},{"id":"fdd6654b-ed7f-492b-973c-ca8ecf4c9ad1","country":"US","name":"Homosassa","lat":"28.78137","lng":"-82.6151"},{"id":"35c6372d-77ee-43a4-850a-5581b8dbc020","country":"US","name":"Homosassa Springs","lat":"28.80359","lng":"-82.57593"},{"id":"ca50fba0-aa68-426f-bbb0-9d9eaddbb46f","country":"US","name":"Howey-in-the-Hills","lat":"28.71694","lng":"-81.77341"},{"id":"3a67a972-6e8b-4ce9-b956-ea3624211533","country":"US","name":"Hudson","lat":"28.36445","lng":"-82.69343"},{"id":"73cb2397-fe39-4768-a224-9cccbd5548dc","country":"US","name":"Hunters Creek","lat":"28.36056","lng":"-81.42229"},{"id":"119f3712-2afa-4c02-a015-ba0f399cfc5a","country":"US","name":"Hypoluxo","lat":"26.56646","lng":"-80.05337"},{"id":"8ea8898c-4fda-4a1a-b24d-d0cbd5e175ef","country":"US","name":"Immokalee","lat":"26.41869","lng":"-81.4173"},{"id":"7dbb0d67-813f-4c6e-a0e2-50d55b6c4269","country":"US","name":"Indialantic","lat":"28.08946","lng":"-80.56561"},{"id":"e58b7656-a93c-4552-90a4-9e3b81c8349a","country":"US","name":"Indian Harbour Beach","lat":"28.1489","lng":"-80.58839"},{"id":"a78eb160-ebee-4e52-a961-abc99ba26c9a","country":"US","name":"Indian River Estates","lat":"27.36449","lng":"-80.30977"},{"id":"004dba00-131c-47dc-b38b-737f8bb10270","country":"US","name":"Indian River Shores","lat":"27.7167","lng":"-80.38422"},{"id":"46935a30-59ce-49fb-8a93-ce98365cd2c4","country":"US","name":"Indian Rocks Beach","lat":"27.8753","lng":"-82.85122"},{"id":"128cd53f-f178-49f6-8f18-572440e39c5c","country":"US","name":"Indian Shores","lat":"27.8628","lng":"-82.84844"},{"id":"e6567e78-f4b4-4012-94f2-307a1be0f09b","country":"US","name":"Indiantown","lat":"27.02728","lng":"-80.48561"},{"id":"2af6070b-a782-4f2f-a9ed-5d7d612e9301","country":"US","name":"Inglis","lat":"29.03025","lng":"-82.66872"},{"id":"45473404-a2c2-4091-b8b1-874d131b86a5","country":"US","name":"Interlachen","lat":"29.62421","lng":"-81.89256"},{"id":"3644ddc0-187c-4480-a7a7-a50f9fd9d7dd","country":"US","name":"Inverness","lat":"28.83582","lng":"-82.33037"},{"id":"a7df34d1-ad64-4203-a979-6529e2bea1ff","country":"US","name":"Inwood","lat":"28.03697","lng":"-81.76508"},{"id":"73743de1-09cb-4f77-8eec-4dc4df4b6e67","country":"US","name":"Iona","lat":"26.52036","lng":"-81.96398"},{"id":"125b4ba3-89ee-42d7-848c-d8c081cbf225","country":"US","name":"Islamorada","lat":"24.9243","lng":"-80.62784"},{"id":"7a7b7ac6-e242-4ff2-aa78-cad01eaf1c8f","country":"US","name":"Ives Estates","lat":"25.96231","lng":"-80.17671"},{"id":"442d383c-cb37-4e5c-9c80-1df03d452cbc","country":"US","name":"Jacksonville","lat":"30.33218","lng":"-81.65565"},{"id":"13e6a581-6cc7-414c-b77c-b66f07f1d01f","country":"US","name":"Jacksonville Beach","lat":"30.29469","lng":"-81.39314"},{"id":"5e0c4535-d5a5-447a-9ec7-5659c2226271","country":"US","name":"Jan-Phyl Village","lat":"28.01474","lng":"-81.77175"},{"id":"2f70171f-f704-457d-84cf-f14a5bcaa5ad","country":"US","name":"Jasmine Estates","lat":"28.29306","lng":"-82.6901"},{"id":"659b9479-73ea-4802-8fe4-a360daeea065","country":"US","name":"Jasper","lat":"30.51827","lng":"-82.94819"},{"id":"00b6082b-609d-4963-bea6-d5980d1259d4","country":"US","name":"Jensen Beach","lat":"27.25449","lng":"-80.22977"},{"id":"fbf569e9-901a-4595-b1d2-c4697d182488","country":"US","name":"June Park","lat":"28.07224","lng":"-80.68006"},{"id":"dcc9bed1-31a4-4ff2-a23d-7229c586eb05","country":"US","name":"Juno Beach","lat":"26.87978","lng":"-80.05337"},{"id":"c277b97f-15bb-4fa8-bf02-1c2f72b66fa7","country":"US","name":"Jupiter","lat":"26.93422","lng":"-80.09421"},{"id":"0fdb7d49-78a5-489c-8927-ed0b1a3a9c68","country":"US","name":"Kathleen","lat":"28.12085","lng":"-82.02314"},{"id":"70794795-395c-4000-99e6-59215dead671","country":"US","name":"Kendale Lakes","lat":"25.70816","lng":"-80.407"},{"id":"37a1ae7d-0b34-44d9-841e-da98c65503d9","country":"US","name":"Kendall","lat":"25.67927","lng":"-80.31727"},{"id":"f9288f00-6811-4d06-ade7-06ec76a29067","country":"US","name":"Kendall Green","lat":"26.25397","lng":"-80.12393"},{"id":"696adb63-e12b-46c6-94fa-198a20f43843","country":"US","name":"Kenneth City","lat":"27.81558","lng":"-82.7201"},{"id":"7782d579-8757-4f3e-9554-aa5f2dd9921d","country":"US","name":"Kensington Park","lat":"27.35949","lng":"-82.49649"},{"id":"c03e143b-d7d6-4308-b22f-4fc72d2c0f67","country":"US","name":"Key Biscayne","lat":"25.69371","lng":"-80.16282"},{"id":"05aab999-e6b2-4c5f-809e-307e1c6dc66a","country":"US","name":"Key Largo","lat":"25.08652","lng":"-80.44728"},{"id":"d450f836-2edf-4d89-bcfb-ade627e39ef4","country":"US","name":"Key West","lat":"24.55524","lng":"-81.78163"},{"id":"935acedd-943a-46f5-a24e-b938a90e9ab3","country":"US","name":"Keystone","lat":"28.15585","lng":"-82.62121"},{"id":"afe26b51-2585-4c5d-a153-e263a9130af4","country":"US","name":"Keystone Heights","lat":"29.78608","lng":"-82.03149"},{"id":"7da8c3eb-654a-4957-b453-ca9a81c19c5b","country":"US","name":"Kings Point","lat":"26.44535","lng":"-80.13977"},{"id":"79074179-9117-4da9-a76b-c1fbc3e1ceb9","country":"US","name":"Kissimmee","lat":"28.30468","lng":"-81.41667"},{"id":"7773e423-f20b-4f68-bf37-d053bd0e8a4c","country":"US","name":"LaBelle","lat":"26.76173","lng":"-81.43841"},